[{"city": "Presidente Dutra", "country": "Brazil", "lat": -5.29, "lon": -44.49, "aqi": 41, "pm25": 41, "ozone": 5, "no2": 1, "co": 1, "category": "Good"}, {"city": "Przasnysz", "country": "Poland", "lat": 53.0191, "lon": 20.8803, "aqi": 34, "pm25": 20, "ozone": 34, "no2": 0, "co": 1, "category": "Good"}, {"city": "Punaauia", "country": "France", "lat": -17.6333, "lon": -149.6, "aqi": 22, "pm25": 6, "ozone": 22, "no2": 0, "co": 0, "category": "Good"}, {"city": "Punta Gorda", "country": "United States of America", "lat": 26.9298, "lon": -82.0454, "aqi": 54, "pm25": 54, "ozone": 14, "no2": 11, "co": 1, "category": "Moderate"}, {"city": "Puurs", "country": "Belgium", "lat": 51.0741, "lon": 4.2884, "aqi": 64, "pm25": 64, "ozone": 29, "no2": 7, "co": 1, "category": "Moderate"}, {"city": "Pyatigorsk", "country": "Russian Federation", "lat": 44.05, "lon": 43.0504, "aqi": 54, "pm25": 54, "ozone": 41, "no2": 1, "co": 1, "category": "Moderate"}, {"city": "Qalyub", "country": "Egypt", "lat": 30.1792, "lon": 31.2056, "aqi": 142, "pm25": 142, "ozone": 89, "no2": 9, "co": 3, "category": "Unhealthy for Sensitive Groups"}, {"city": "Qinzhou", "country": "China", "lat": 21.9825, "lon": 108.6506, "aqi": 68, "pm25": 58, "ozone": 68, "no2": 1, "co": 2, "category": "Moderate"}, {"city": "Raalte", "country": "Netherlands", "lat": 52.3858, "lon": 6.275, "aqi": 41, "pm25": 41, "ozone": 24, "no2": 6, "co": 1, "category": "Good"}, {"city": "Radhan", "country": "Pakistan", "lat": 27.1985, "lon": 67.9535, "aqi": 158, "pm25": 158, "ozone": 50, "no2": 1, "co": 1, "category": "Unhealthy"}, {"city": "Radovis", "country": "Republic of North Macedonia", "lat": 41.6383, "lon": 22.4647, "aqi": 83, "pm25": 83, "ozone": 46, "no2": 0, "co": 1, "category": "Moderate"}, {"city": "Rajgir", "country": "India", "lat": 25.0283, "lon": 85.4208, "aqi": 154, "pm25": 154, "ozone": 100, "no2": 2, "co": 3, "category": "Unhealthy"}, {"city": "Phoenix", "country": "United States of America", "lat": 33.4484, "lon": -112.074, "aqi": 72, "pm25": 72, "ozone": 4, "no2": 23, "co": 1, "category": "Moderate"}, {"city": "Phulabani", "country": "India", "lat": 20.481, "lon": 84.2306, "aqi": 161, "pm25": 161, "ozone": 71, "no2": 0, "co": 2, "category": "Unhealthy"}, {"city": "Piaseczno", "country": "Poland", "lat": 52.0814, "lon": 21.024, "aqi": 28, "pm25": 28, "ozone": 28, "no2": 2, "co": 1, "category": "Good"}, {"city": "Pimpri", "country": "India", "lat": 18.6229, "lon": 73.807, "aqi": 118, "pm25": 118, "ozone": 30, "no2": 2, "co": 2, "category": "Unhealthy for Sensitive Groups"}, {"city": "Pingyin", "country": "China", "lat": 36.2831, "lon": 116.4453, "aqi": 150, "pm25": 150, "ozone": 95, "no2": 6, "co": 3, "category": "Unhealthy"}, {"city": "Pinheiral", "country": "Brazil", "lat": -22.5128, "lon": -44.0006, "aqi": 154, "pm25": 154, "ozone": 0, "no2": 13, "co": 5, "category": "Unhealthy"}, {"city": "Piravam", "country": "India", "lat": 9.8667, "lon": 76.5, "aqi": 81, "pm25": 81, "ozone": 24, "no2": 1, "co": 1, "category": "Moderate"}, {"city": "Plato", "country": "Colombia", "lat": 9.7903, "lon": -74.7824, "aqi": 67, "pm25": 67, "ozone": 16, "no2": 2, "co": 1, "category": "Moderate"}, {"city": "Polevskoy", "country": "Russian Federation", "lat": 56.4422, "lon": 60.1878, "aqi": 31, "pm25": 17, "ozone": 31, "no2": 0, "co": 1, "category": "Good"}, {"city": "Pontarlier", "country": "France", "lat": 46.9035, "lon": 6.3554, "aqi": 56, "pm25": 56, "ozone": 35, "no2": 0, "co": 1, "category": "Moderate"}, {"city": "Pontiac", "country": "United States of America", "lat": 42.6389, "lon": -83.291, "aqi": 77, "pm25": 77, "ozone": 22, "no2": 15, "co": 2, "category": "Moderate"}, {"city": "Pontianak", "country": "Indonesia", "lat": -0.0319, "lon": 109.325, "aqi": 44, "pm25": 44, "ozone": 15, "no2": 0, "co": 1, "category": "Good"}, {"city": "Pori", "country": "Finland", "lat": 61.4833, "lon": 21.7833, "aqi": 30, "pm25": 15, "ozone": 30, "no2": 1, "co": 1, "category": "Good"}, {"city": "Port Elizabeth", "country": "South Africa", "lat": -33.9611, "lon": 25.6149, "aqi": 79, "pm25": 79, "ozone": 18, "no2": 5, "co": 3, "category": "Moderate"}, {"city": "Post Falls", "country": "United States of America", "lat": 47.718, "lon": -116.9516, "aqi": 61, "pm25": 61, "ozone": 32, "no2": 3, "co": 1, "category": "Moderate"}, {"city": "Pouso Alegre", "country": "Brazil", "lat": -22.23, "lon": -45.9364, "aqi": 32, "pm25": 32, "ozone": 7, "no2": 2, "co": 1, "category": "Good"}, {"city": "Dalinghe", "country": "China", "lat": 41.1653, "lon": 121.3667, "aqi": 64, "pm25": 64, "ozone": 64, "no2": 4, "co": 3, "category": "Moderate"}, {"city": "Dalnegorsk", "country": "Russian Federation", "lat": 44.5575, "lon": 135.6209, "aqi": 29, "pm25": 25, "ozone": 29, "no2": 0, "co": 0, "category": "Good"}, {"city": "Dar Es Salaam", "country": "United Republic of Tanzania", "lat": -6.8235, "lon": 39.2695, "aqi": 51, "pm25": 51, "ozone": 23, "no2": 0, "co": 1, "category": "Moderate"}, {"city": "Darbhanga", "country": "India", "lat": 26.1522, "lon": 85.8971, "aqi": 247, "pm25": 247, "ozone": 162, "no2": 1, "co": 3, "category": "Very Unhealthy"}, {"city": "Dayton", "country": "United States of America", "lat": 39.7589, "lon": -84.1916, "aqi": 45, "pm25": 45, "ozone": 32, "no2": 7, "co": 1, "category": "Good"}, {"city": "Deinze", "country": "Belgium", "lat": 50.9817, "lon": 3.531, "aqi": 36, "pm25": 36, "ozone": 25, "no2": 3, "co": 1, "category": "Good"}, {"city": "Dekernes", "country": "Egypt", "lat": 31.089, "lon": 31.5948, "aqi": 81, "pm25": 56, "ozone": 81, "no2": 4, "co": 2, "category": "Moderate"}, {"city": "Delmas", "country": "Haiti", "lat": 18.5448, "lon": -72.3004, "aqi": 124, "pm25": 124, "ozone": 15, "no2": 5, "co": 2, "category": "Unhealthy for Sensitive Groups"}, {"city": "Denton", "country": "United Kingdom of Great Britain and Northern Ireland", "lat": 53.4568, "lon": -2.1182, "aqi": 55, "pm25": 55, "ozone": 32, "no2": 1, "co": 0, "category": "Moderate"}, {"city": "Dhadar", "country": "Pakistan", "lat": 29.4749, "lon": 67.6517, "aqi": 157, "pm25": 157, "ozone": 89, "no2": 0, "co": 1, "category": "Unhealthy"}, {"city": "Dharmapuri", "country": "India", "lat": 12.1277, "lon": 78.1579, "aqi": 60, "pm25": 60, "ozone": 31, "no2": 1, "co": 1, "category": "Moderate"}, {"city": "Digri", "country": "Pakistan", "lat": 25.1566, "lon": 69.111, "aqi": 153, "pm25": 153, "ozone": 40, "no2": 0, "co": 1, "category": "Unhealthy"}, {"city": "Dinsor", "country": "Somalia", "lat": 2.4085, "lon": 42.9771, "aqi": 22, "pm25": 22, "ozone": 19, "no2": 0, "co": 0, "category": "Good"}, {"city": "Dipolog", "country": "Philippines", "lat": 8.567, "lon": 123.3347, "aqi": 30, "pm25": 30, "ozone": 17, "no2": 0, "co": 1, "category": "Good"}, {"city": "Grandville", "country": "United States of America", "lat": 42.9098, "lon": -85.7631, "aqi": 47, "pm25": 47, "ozone": 37, "no2": 4, "co": 1, "category": "Good"}, {"city": "Green Valley", "country": "United States of America", "lat": 31.8543, "lon": -110.9937, "aqi": 44, "pm25": 44, "ozone": 14, "no2": 8, "co": 1, "category": "Good"}, {"city": "Grudziadz", "country": "Poland", "lat": 53.4841, "lon": 18.7537, "aqi": 37, "pm25": 37, "ozone": 33, "no2": 0, "co": 0, "category": "Good"}, {"city": "Guamo", "country": "Colombia", "lat": 4.0308, "lon": -74.9701, "aqi": 89, "pm25": 89, "ozone": 3, "no2": 6, "co": 3, "category": "Moderate"}, {"city": "Guelengdeng", "country": "Chad", "lat": 10.9176, "lon": 15.5501, "aqi": 59, "pm25": 59, "ozone": 16, "no2": 0, "co": 2, "category": "Moderate"}, {"city": "Guildford", "country": "United Kingdom of Great Britain and Northern Ireland", "lat": 51.2354, "lon": -0.5743, "aqi": 51, "pm25": 51, "ozone": 25, "no2": 6, "co": 1, "category": "Moderate"}, {"city": "Guiset", "country": "Philippines", "lat": 16.0667, "lon": 120.6833, "aqi": 66, "pm25": 66, "ozone": 26, "no2": 1, "co": 1, "category": "Moderate"}, {"city": "Gukovo", "country": "Russian Federation", "lat": 48.0621, "lon": 39.9355, "aqi": 38, "pm25": 13, "ozone": 38, "no2": 0, "co": 1, "category": "Good"}, {"city": "Hazelwood", "country": "United States of America", "lat": 38.7714, "lon": -90.3709, "aqi": 88, "pm25": 88, "ozone": 11, "no2": 20, "co": 2, "category": "Moderate"}, {"city": "Heiligenhaus", "country": "Germany", "lat": 51.3266, "lon": 6.9711, "aqi": 44, "pm25": 44, "ozone": 28, "no2": 3, "co": 1, "category": "Good"}, {"city": "Hemel Hempstead", "country": "United Kingdom of Great Britain and Northern Ireland", "lat": 51.7537, "lon": -0.4497, "aqi": 51, "pm25": 51, "ozone": 26, "no2": 6, "co": 1, "category": "Moderate"}, {"city": "Hicksville", "country": "United States of America", "lat": 40.7684, "lon": -73.5251, "aqi": 67, "pm25": 67, "ozone": 15, "no2": 23, "co": 2, "category": "Moderate"}, {"city": "Gyanpur", "country": "India", "lat": 25.3327, "lon": 82.4664, "aqi": 189, "pm25": 189, "ozone": 99, "no2": 1, "co": 2, "category": "Unhealthy"}, {"city": "Haiger", "country": "Germany", "lat": 50.7416, "lon": 8.2078, "aqi": 49, "pm25": 49, "ozone": 25, "no2": 3, "co": 1, "category": "Good"}, {"city": "Hangzhou", "country": "China", "lat": 30.2936, "lon": 120.1614, "aqi": 203, "pm25": 151, "ozone": 203, "no2": 5, "co": 5, "category": "Very Unhealthy"}, {"city": "Harrison", "country": "United States of America", "lat": 41.4092, "lon": -75.6649, "aqi": 90, "pm25": 90, "ozone": 25, "no2": 2, "co": 1, "category": "Moderate"}, {"city": "Harur", "country": "India", "lat": 12.0527, "lon": 78.4802, "aqi": 67, "pm25": 67, "ozone": 26, "no2": 1, "co": 1, "category": "Moderate"}, {"city": "Haubourdin", "country": "France", "lat": 50.6083, "lon": 2.9914, "aqi": 48, "pm25": 48, "ozone": 28, "no2": 4, "co": 1, "category": "Good"}, {"city": "Taunton", "country": "United States of America", "lat": 41.9001, "lon": -71.0898, "aqi": 41, "pm25": 41, "ozone": 28, "no2": 10, "co": 1, "category": "Good"}, {"city": "Tauranga", "country": "New Zealand", "lat": -37.6861, "lon": 176.1667, "aqi": 19, "pm25": 17, "ozone": 19, "no2": 1, "co": 0, "category": "Good"}, {"city": "Tawzar", "country": "Tunisia", "lat": 33.9197, "lon": 8.1335, "aqi": 73, "pm25": 73, "ozone": 43, "no2": 0, "co": 1, "category": "Moderate"}, {"city": "Tay Ninh", "country": "Viet Nam", "lat": 11.31, "lon": 106.0983, "aqi": 45, "pm25": 45, "ozone": 18, "no2": 1, "co": 0, "category": "Good"}, {"city": "Taybad", "country": "Iran (Islamic Republic of)", "lat": 34.74, "lon": 60.7756, "aqi": 170, "pm25": 170, "ozone": 43, "no2": 0, "co": 1, "category": "Unhealthy"}, {"city": "Tekkali", "country": "India", "lat": 18.6057, "lon": 84.2355, "aqi": 155, "pm25": 155, "ozone": 82, "no2": 1, "co": 3, "category": "Unhealthy"}, {"city": "Teodoro Sampaio", "country": "Brazil", "lat": -22.5325, "lon": -52.1675, "aqi": 46, "pm25": 46, "ozone": 9, "no2": 1, "co": 1, "category": "Good"}, {"city": "Tepeaca", "country": "Mexico", "lat": 18.9669, "lon": -97.8998, "aqi": 172, "pm25": 172, "ozone": 2, "no2": 11, "co": 5, "category": "Unhealthy"}, {"city": "Tequila", "country": "Mexico", "lat": 20.882, "lon": -103.836, "aqi": 64, "pm25": 64, "ozone": 15, "no2": 2, "co": 1, "category": "Moderate"}, {"city": "Teramo", "country": "Italy", "lat": 42.6612, "lon": 13.699, "aqi": 44, "pm25": 38, "ozone": 44, "no2": 1, "co": 1, "category": "Good"}, {"city": "Thai Nguyen", "country": "Viet Nam", "lat": 21.5942, "lon": 105.8482, "aqi": 150, "pm25": 105, "ozone": 150, "no2": 1, "co": 3, "category": "Unhealthy"}, {"city": "Tianjin", "country": "China", "lat": 39.1422, "lon": 117.1767, "aqi": 142, "pm25": 142, "ozone": 113, "no2": 9, "co": 4, "category": "Unhealthy for Sensitive Groups"}, {"city": "Timisoara", "country": "Romania", "lat": 45.7537, "lon": 21.2257, "aqi": 47, "pm25": 47, "ozone": 42, "no2": 0, "co": 1, "category": "Good"}, {"city": "Tinjah", "country": "Tunisia", "lat": 37.1596, "lon": 9.7606, "aqi": 48, "pm25": 29, "ozone": 48, "no2": 1, "co": 1, "category": "Good"}, {"city": "Tokorozawa", "country": "Japan", "lat": 35.7992, "lon": 139.469, "aqi": 60, "pm25": 60, "ozone": 44, "no2": 3, "co": 1, "category": "Moderate"}, {"city": "Toluca", "country": "Mexico", "lat": 19.2879, "lon": -99.6532, "aqi": 166, "pm25": 166, "ozone": 8, "no2": 19, "co": 4, "category": "Unhealthy"}, {"city": "Itapissuma", "country": "Brazil", "lat": -7.7764, "lon": -34.8922, "aqi": 27, "pm25": 27, "ozone": 23, "no2": 1, "co": 0, "category": "Good"}, {"city": "Itarantim", "country": "Brazil", "lat": -15.6597, "lon": -40.0656, "aqi": 23, "pm25": 23, "ozone": 7, "no2": 1, "co": 1, "category": "Good"}, {"city": "Itumbiara", "country": "Brazil", "lat": -18.4192, "lon": -49.2153, "aqi": 31, "pm25": 31, "ozone": 13, "no2": 0, "co": 1, "category": "Good"}, {"city": "Ixtaczoquitlan", "country": "Mexico", "lat": 18.8536, "lon": -97.0623, "aqi": 88, "pm25": 88, "ozone": 13, "no2": 9, "co": 3, "category": "Moderate"}, {"city": "Izalco", "country": "El Salvador", "lat": 13.7447, "lon": -89.6731, "aqi": 90, "pm25": 90, "ozone": 22, "no2": 9, "co": 2, "category": "Moderate"}, {"city": "Izazi", "country": "United Republic of Tanzania", "lat": -7.2, "lon": 35.7333, "aqi": 28, "pm25": 28, "ozone": 15, "no2": 0, "co": 1, "category": "Good"}, {"city": "Izberbash", "country": "Russian Federation", "lat": 42.5671, "lon": 47.8755, "aqi": 51, "pm25": 51, "ozone": 38, "no2": 0, "co": 1, "category": "Moderate"}, {"city": "Jabalpur", "country": "India", "lat": 23.167, "lon": 79.9501, "aqi": 170, "pm25": 170, "ozone": 38, "no2": 0, "co": 1, "category": "Unhealthy"}, {"city": "Jaguaquara", "country": "Brazil", "lat": -13.5306, "lon": -39.9708, "aqi": 22, "pm25": 22, "ozone": 9, "no2": 1, "co": 0, "category": "Good"}, {"city": "Jahanabad", "country": "India", "lat": 25.2137, "lon": 84.9871, "aqi": 168, "pm25": 156, "ozone": 168, "no2": 1, "co": 4, "category": "Unhealthy"}, {"city": "Jambol", "country": "Bulgaria", "lat": 42.4833, "lon": 26.5, "aqi": 40, "pm25": 32, "ozone": 40, "no2": 0, "co": 1, "category": "Good"}, {"city": "Jarocin", "country": "Poland", "lat": 51.9727, "lon": 17.5026, "aqi": 47, "pm25": 47, "ozone": 27, "no2": 2, "co": 1, "category": "Good"}, {"city": "Jasaan", "country": "Philippines", "lat": 8.6542, "lon": 124.7556, "aqi": 59, "pm25": 59, "ozone": 32, "no2": 0, "co": 1, "category": "Moderate"}, {"city": "Ilobu", "country": "Nigeria", "lat": 7.8388, "lon": 4.4867, "aqi": 133, "pm25": 133, "ozone": 23, "no2": 3, "co": 4, "category": "Unhealthy for Sensitive Groups"}, {"city": "Imatra", "country": "Finland", "lat": 61.1718, "lon": 28.7524, "aqi": 29, "pm25": 7, "ozone": 29, "no2": 1, "co": 1, "category": "Good"}, {"city": "Indaial", "country": "Brazil", "lat": -26.8978, "lon": -49.2317, "aqi": 73, "pm25": 73, "ozone": 2, "no2": 8, "co": 2, "category": "Moderate"}, {"city": "Indang", "country": "Philippines", "lat": 14.1953, "lon": 120.8769, "aqi": 50, "pm25": 50, "ozone": 24, "no2": 0, "co": 0, "category": "Good"}, {"city": "Iseyin", "country": "Nigeria", "lat": 7.9702, "lon": 3.5963, "aqi": 90, "pm25": 90, "ozone": 18, "no2": 2, "co": 3, "category": "Moderate"}, {"city": "Isla", "country": "Mexico", "lat": 18.0278, "lon": -95.5295, "aqi": 81, "pm25": 81, "ozone": 26, "no2": 3, "co": 2, "category": "Moderate"}, {"city": "Itaitinga", "country": "Brazil", "lat": -3.9694, "lon": -38.5281, "aqi": 29, "pm25": 29, "ozone": 20, "no2": 1, "co": 0, "category": "Good"}, {"city": "Itambe", "country": "Brazil", "lat": -7.4103, "lon": -35.1128, "aqi": 21, "pm25": 21, "ozone": 8, "no2": 1, "co": 0, "category": "Good"}, {"city": "Itapemirim", "country": "Brazil", "lat": -21.0111, "lon": -40.8339, "aqi": 44, "pm25": 44, "ozone": 16, "no2": 1, "co": 1, "category": "Good"}, {"city": "Torit", "country": "South Sudan", "lat": 4.4118, "lon": 32.5705, "aqi": 65, "pm25": 65, "ozone": 12, "no2": 0, "co": 1, "category": "Moderate"}, {"city": "Totonicapan", "country": "Guatemala", "lat": 14.9119, "lon": -91.3605, "aqi": 66, "pm25": 66, "ozone": 7, "no2": 6, "co": 2, "category": "Moderate"}, {"city": "Trenton", "country": "United States of America", "lat": 40.2171, "lon": -74.7429, "aqi": 53, "pm25": 53, "ozone": 28, "no2": 10, "co": 1, "category": "Moderate"}, {"city": "Trujillo Alto", "country": "United States of America", "lat": 18.3547, "lon": -66.0074, "aqi": 56, "pm25": 56, "ozone": 23, "no2": 0, "co": 0, "category": "Moderate"}, {"city": "Tunceli", "country": "Turkey", "lat": 39.0992, "lon": 39.5435, "aqi": 62, "pm25": 62, "ozone": 35, "no2": 0, "co": 0, "category": "Moderate"}, {"city": "Tuyen Quang", "country": "Viet Nam", "lat": 21.8236, "lon": 105.2142, "aqi": 167, "pm25": 107, "ozone": 167, "no2": 1, "co": 4, "category": "Unhealthy"}, {"city": "Tysons Corner", "country": "United States of America", "lat": 38.9187, "lon": -77.2311, "aqi": 55, "pm25": 55, "ozone": 25, "no2": 11, "co": 2, "category": "Moderate"}, {"city": "Udupi", "country": "India", "lat": 13.3347, "lon": 74.7462, "aqi": 80, "pm25": 80, "ozone": 25, "no2": 0, "co": 1, "category": "Moderate"}, {"city": "Umaria", "country": "India", "lat": 23.5247, "lon": 80.8372, "aqi": 163, "pm25": 163, "ozone": 92, "no2": 0, "co": 2, "category": "Unhealthy"}, {"city": "Willowbrook", "country": "United States of America", "lat": 33.917, "lon": -118.2551, "aqi": 126, "pm25": 126, "ozone": 3, "no2": 36, "co": 4, "category": "Unhealthy for Sensitive Groups"}, {"city": "Wilmette", "country": "United States of America", "lat": 42.0722, "lon": -87.7228, "aqi": 63, "pm25": 63, "ozone": 9, "no2": 22, "co": 2, "category": "Moderate"}, {"city": "Wolf Trap", "country": "United States of America", "lat": 38.9398, "lon": -77.2861, "aqi": 53, "pm25": 53, "ozone": 27, "no2": 10, "co": 2, "category": "Moderate"}, {"city": "Woodhaven", "country": "United States of America", "lat": 40.6893, "lon": -73.8579, "aqi": 86, "pm25": 86, "ozone": 38, "no2": 10, "co": 2, "category": "Moderate"}, {"city": "Xiaoweizhai", "country": "China", "lat": 26.1903, "lon": 107.5125, "aqi": 61, "pm25": 54, "ozone": 61, "no2": 0, "co": 2, "category": "Moderate"}, {"city": "Xushan", "country": "China", "lat": 30.1764, "lon": 121.2457, "aqi": 112, "pm25": 112, "ozone": 44, "no2": 4, "co": 2, "category": "Unhealthy for Sensitive Groups"}, {"city": "Yanacancha", "country": "Peru", "lat": -10.6659, "lon": -76.2553, "aqi": 27, "pm25": 27, "ozone": 6, "no2": 1, "co": 0, "category": "Good"}, {"city": "Yancheng", "country": "China", "lat": 33.3575, "lon": 120.1573, "aqi": 155, "pm25": 151, "ozone": 155, "no2": 2, "co": 3, "category": "Unhealthy"}, {"city": "Yangambi", "country": "Democratic Republic of the Congo", "lat": 0.7675, "lon": 24.4397, "aqi": 121, "pm25": 121, "ozone": 24, "no2": 0, "co": 4, "category": "Unhealthy for Sensitive Groups"}, {"city": "Yanggu", "country": "China", "lat": 36.1106, "lon": 115.7753, "aqi": 160, "pm25": 160, "ozone": 138, "no2": 5, "co": 3, "category": "Unhealthy"}, {"city": "Yangliuqing", "country": "China", "lat": 39.1375, "lon": 116.9997, "aqi": 144, "pm25": 144, "ozone": 109, "no2": 9, "co": 4, "category": "Unhealthy for Sensitive Groups"}, {"city": "Yanji", "country": "China", "lat": 42.8882, "lon": 129.5024, "aqi": 69, "pm25": 69, "ozone": 48, "no2": 0, "co": 2, "category": "Moderate"}, {"city": "Wenden", "country": "Germany", "lat": 50.9667, "lon": 7.8667, "aqi": 69, "pm25": 69, "ozone": 34, "no2": 4, "co": 1, "category": "Moderate"}, {"city": "Wetteren", "country": "Belgium", "lat": 51.0053, "lon": 3.8834, "aqi": 64, "pm25": 64, "ozone": 32, "no2": 6, "co": 1, "category": "Moderate"}, {"city": "Whitehorse", "country": "Canada", "lat": 60.7161, "lon": -135.0538, "aqi": 20, "pm25": 10, "ozone": 20, "no2": 1, "co": 1, "category": "Good"}, {"city": "Wil", "country": "Switzerland", "lat": 47.4615, "lon": 9.0455, "aqi": 59, "pm25": 59, "ozone": 27, "no2": 3, "co": 1, "category": "Moderate"}, {"city": "Wildeshausen", "country": "Germany", "lat": 52.8945, "lon": 8.4337, "aqi": 67, "pm25": 67, "ozone": 30, "no2": 5, "co": 1, "category": "Moderate"}, {"city": "Williamsport", "country": "United States of America", "lat": 41.2412, "lon": -77.0011, "aqi": 75, "pm25": 75, "ozone": 13, "no2": 16, "co": 2, "category": "Moderate"}, {"city": "Foz Do Iguacu", "country": "Brazil", "lat": -25.5478, "lon": -54.5881, "aqi": 22, "pm25": 22, "ozone": 13, "no2": 0, "co": 1, "category": "Good"}, {"city": "Frederikssund", "country": "Denmark", "lat": 55.8396, "lon": 12.069, "aqi": 36, "pm25": 25, "ozone": 36, "no2": 0, "co": 1, "category": "Good"}, {"city": "Furano", "country": "Japan", "lat": 43.35, "lon": 142.3833, "aqi": 29, "pm25": 29, "ozone": 26, "no2": 1, "co": 1, "category": "Good"}, {"city": "Fuzhou", "country": "China", "lat": 26.0614, "lon": 119.3061, "aqi": 168, "pm25": 99, "ozone": 168, "no2": 5, "co": 3, "category": "Unhealthy"}, {"city": "Garbsen", "country": "Germany", "lat": 52.4137, "lon": 9.5899, "aqi": 36, "pm25": 36, "ozone": 33, "no2": 1, "co": 0, "category": "Good"}, {"city": "Garoua", "country": "Cameroon", "lat": 9.3014, "lon": 13.3977, "aqi": 59, "pm25": 59, "ozone": 12, "no2": 0, "co": 2, "category": "Moderate"}, {"city": "Garowe", "country": "Somalia", "lat": 8.4021, "lon": 48.4828, "aqi": 98, "pm25": 98, "ozone": 17, "no2": 0, "co": 0, "category": "Moderate"}, {"city": "Geertruidenberg", "country": "Netherlands", "lat": 51.7017, "lon": 4.8569, "aqi": 35, "pm25": 35, "ozone": 33, "no2": 2, "co": 0, "category": "Good"}, {"city": "Geraldton", "country": "Australia", "lat": -28.779, "lon": 114.6146, "aqi": 29, "pm25": 13, "ozone": 29, "no2": 0, "co": 0, "category": "Good"}, {"city": "Germersheim", "country": "Germany", "lat": 49.2144, "lon": 8.3669, "aqi": 51, "pm25": 51, "ozone": 29, "no2": 3, "co": 1, "category": "Moderate"}, {"city": "Girardot", "country": "Colombia", "lat": 4.3008, "lon": -74.8075, "aqi": 103, "pm25": 103, "ozone": 9, "no2": 6, "co": 4, "category": "Unhealthy for Sensitive Groups"}, {"city": "Golborne", "country": "United Kingdom of Great Britain and Northern Ireland", "lat": 53.4769, "lon": -2.5965, "aqi": 35, "pm25": 35, "ozone": 30, "no2": 4, "co": 1, "category": "Good"}, {"city": "Gondomar", "country": "Portugal", "lat": 41.1445, "lon": -8.5322, "aqi": 27, "pm25": 21, "ozone": 27, "no2": 2, "co": 0, "category": "Good"}, {"city": "Goryachevodskiy", "country": "Russian Federation", "lat": 44.0236, "lon": 43.0922, "aqi": 48, "pm25": 48, "ozone": 39, "no2": 1, "co": 1, "category": "Good"}, {"city": "Hoffman Estates", "country": "United States of America", "lat": 42.0428, "lon": -88.0798, "aqi": 61, "pm25": 61, "ozone": 26, "no2": 16, "co": 2, "category": "Moderate"}, {"city": "Holly Springs", "country": "United States of America", "lat": 35.6513, "lon": -78.8336, "aqi": 42, "pm25": 37, "ozone": 42, "no2": 2, "co": 1, "category": "Good"}, {"city": "Holzminden", "country": "Germany", "lat": 51.828, "lon": 9.4455, "aqi": 42, "pm25": 42, "ozone": 32, "no2": 1, "co": 0, "category": "Good"}, {"city": "Huaicheng", "country": "China", "lat": 23.9195, "lon": 112.1763, "aqi": 151, "pm25": 151, "ozone": 45, "no2": 4, "co": 4, "category": "Unhealthy"}, {"city": "Huruta", "country": "Ethiopia", "lat": 8.15, "lon": 39.35, "aqi": 102, "pm25": 102, "ozone": 23, "no2": 0, "co": 1, "category": "Unhealthy for Sensitive Groups"}, {"city": "Idanre", "country": "Nigeria", "lat": 7.1127, "lon": 5.1159, "aqi": 115, "pm25": 115, "ozone": 24, "no2": 2, "co": 3, "category": "Unhealthy for Sensitive Groups"}, {"city": "Iglesias", "country": "Italy", "lat": 39.3092, "lon": 8.5372, "aqi": 64, "pm25": 64, "ozone": 53, "no2": 1, "co": 1, "category": "Moderate"}, {"city": "Iizuka", "country": "Japan", "lat": 33.6365, "lon": 130.6868, "aqi": 45, "pm25": 38, "ozone": 45, "no2": 0, "co": 1, "category": "Good"}, {"city": "Sungai Kolok", "country": "Thailand", "lat": 6.0298, "lon": 101.9659, "aqi": 65, "pm25": 65, "ozone": 34, "no2": 0, "co": 1, "category": "Moderate"}, {"city": "Suvorovskaya", "country": "Russian Federation", "lat": 44.1901, "lon": 42.6595, "aqi": 52, "pm25": 52, "ozone": 39, "no2": 1, "co": 1, "category": "Moderate"}, {"city": "Suzu", "country": "Japan", "lat": 31.3041, "lon": 120.5954, "aqi": 69, "pm25": 60, "ozone": 69, "no2": 1, "co": 1, "category": "Moderate"}, {"city": "Swiecie", "country": "Poland", "lat": 53.4095, "lon": 18.4474, "aqi": 44, "pm25": 44, "ozone": 33, "no2": 1, "co": 1, "category": "Good"}, {"city": "Szeged", "country": "Hungary", "lat": 46.253, "lon": 20.1482, "aqi": 50, "pm25": 50, "ozone": 41, "no2": 1, "co": 1, "category": "Good"}, {"city": "Taburbah", "country": "Tunisia", "lat": 36.8293, "lon": 9.8393, "aqi": 49, "pm25": 32, "ozone": 49, "no2": 1, "co": 1, "category": "Good"}, {"city": "Tadepallegudem", "country": "India", "lat": 16.8147, "lon": 81.5272, "aqi": 127, "pm25": 127, "ozone": 65, "no2": 1, "co": 2, "category": "Unhealthy for Sensitive Groups"}, {"city": "Tagaytay", "country": "Philippines", "lat": 14.0953, "lon": 120.9335, "aqi": 41, "pm25": 41, "ozone": 25, "no2": 1, "co": 1, "category": "Good"}, {"city": "Tajimi", "country": "Japan", "lat": 35.3167, "lon": 137.1333, "aqi": 52, "pm25": 52, "ozone": 34, "no2": 3, "co": 1, "category": "Moderate"}, {"city": "Takahagi", "country": "Japan", "lat": 36.7167, "lon": 140.7167, "aqi": 47, "pm25": 44, "ozone": 47, "no2": 1, "co": 1, "category": "Good"}, {"city": "Takahashi", "country": "Japan", "lat": 34.7833, "lon": 133.6167, "aqi": 36, "pm25": 34, "ozone": 36, "no2": 3, "co": 1, "category": "Good"}, {"city": "Tal", "country": "India", "lat": 33.6103, "lon": 36.3107, "aqi": 155, "pm25": 155, "ozone": 39, "no2": 0, "co": 1, "category": "Unhealthy"}, {"city": "Talacogon", "country": "Philippines", "lat": 8.4561, "lon": 125.7842, "aqi": 37, "pm25": 37, "ozone": 19, "no2": 0, "co": 1, "category": "Good"}, {"city": "Talgar", "country": "Kazakhstan", "lat": 43.3023, "lon": 77.2381, "aqi": 69, "pm25": 69, "ozone": 42, "no2": 0, "co": 1, "category": "Moderate"}, {"city": "Tamiami", "country": "United States of America", "lat": 25.7587, "lon": -80.3984, "aqi": 64, "pm25": 64, "ozone": 18, "no2": 12, "co": 1, "category": "Moderate"}, {"city": "Tamra", "country": "Israel", "lat": 32.853, "lon": 35.1987, "aqi": 92, "pm25": 92, "ozone": 52, "no2": 8, "co": 2, "category": "Moderate"}, {"city": "Tanashi", "country": "Japan", "lat": 35.7253, "lon": 139.5383, "aqi": 58, "pm25": 58, "ozone": 43, "no2": 3, "co": 1, "category": "Moderate"}, {"city": "Tatvan", "country": "Turkey", "lat": 38.4922, "lon": 42.2827, "aqi": 45, "pm25": 43, "ozone": 45, "no2": 0, "co": 0, "category": "Good"}, {"city": "Yaval", "country": "India", "lat": 21.1677, "lon": 75.6976, "aqi": 102, "pm25": 102, "ozone": 38, "no2": 0, "co": 1, "category": "Unhealthy for Sensitive Groups"}, {"city": "Yeovil", "country": "United Kingdom of Great Britain and Northern Ireland", "lat": 50.9416, "lon": -2.6321, "aqi": 58, "pm25": 58, "ozone": 24, "no2": 7, "co": 1, "category": "Moderate"}, {"city": "Yuanping", "country": "China", "lat": 38.7153, "lon": 112.7575, "aqi": 143, "pm25": 143, "ozone": 35, "no2": 5, "co": 2, "category": "Unhealthy for Sensitive Groups"}, {"city": "Yuncheng", "country": "China", "lat": 35.0231, "lon": 110.9928, "aqi": 187, "pm25": 187, "ozone": 36, "no2": 8, "co": 2, "category": "Unhealthy"}, {"city": "Zambrow", "country": "Poland", "lat": 52.9855, "lon": 22.2432, "aqi": 35, "pm25": 17, "ozone": 35, "no2": 0, "co": 1, "category": "Good"}, {"city": "Zamosc", "country": "Poland", "lat": 50.7231, "lon": 23.252, "aqi": 48, "pm25": 48, "ozone": 35, "no2": 1, "co": 1, "category": "Good"}, {"city": "Zaventem", "country": "Belgium", "lat": 50.8837, "lon": 4.473, "aqi": 58, "pm25": 58, "ozone": 29, "no2": 6, "co": 1, "category": "Moderate"}, {"city": "Zemst", "country": "Belgium", "lat": 50.9832, "lon": 4.4608, "aqi": 65, "pm25": 65, "ozone": 27, "no2": 8, "co": 1, "category": "Moderate"}, {"city": "Zhaozhou", "country": "China", "lat": 45.706, "lon": 125.2661, "aqi": 73, "pm25": 73, "ozone": 66, "no2": 0, "co": 2, "category": "Moderate"}, {"city": "Zhicheng", "country": "China", "lat": 30.2956, "lon": 111.5047, "aqi": 160, "pm25": 160, "ozone": 36, "no2": 13, "co": 4, "category": "Unhealthy"}, {"city": "Zhongshan", "country": "China", "lat": 22.5231, "lon": 113.3791, "aqi": 98, "pm25": 98, "ozone": 33, "no2": 9, "co": 3, "category": "Moderate"}, {"city": "Zhuji", "country": "China", "lat": 34.45, "lon": 115.65, "aqi": 156, "pm25": 156, "ozone": 45, "no2": 10, "co": 4, "category": "Unhealthy"}, {"city": "Zinacantepec", "country": "Mexico", "lat": 19.2843, "lon": -99.7339, "aqi": 163, "pm25": 163, "ozone": 8, "no2": 18, "co": 4, "category": "Unhealthy"}, {"city": "Abbiategrasso", "country": "Italy", "lat": 45.3982, "lon": 8.9168, "aqi": 69, "pm25": 69, "ozone": 37, "no2": 4, "co": 1, "category": "Moderate"}, {"city": "Abidjan", "country": "Côte d'Ivoire", "lat": 5.3544, "lon": -4.0017, "aqi": 105, "pm25": 105, "ozone": 15, "no2": 4, "co": 4, "category": "Unhealthy for Sensitive Groups"}, {"city": "Acuautla", "country": "Mexico", "lat": 19.3456, "lon": -98.8603, "aqi": 189, "pm25": 189, "ozone": 9, "no2": 15, "co": 2, "category": "Unhealthy"}, {"city": "Acworth", "country": "United States of America", "lat": 34.0663, "lon": -84.6784, "aqi": 64, "pm25": 64, "ozone": 37, "no2": 8, "co": 2, "category": "Moderate"}, {"city": "Adelphi", "country": "United States of America", "lat": 39.0032, "lon": -76.9719, "aqi": 54, "pm25": 54, "ozone": 32, "no2": 5, "co": 1, "category": "Moderate"}, {"city": "Afzalgarh", "country": "India", "lat": 29.3937, "lon": 78.6739, "aqi": 198, "pm25": 188, "ozone": 198, "no2": 3, "co": 4, "category": "Unhealthy"}, {"city": "Agbor", "country": "Nigeria", "lat": 6.2538, "lon": 6.1942, "aqi": 139, "pm25": 139, "ozone": 13, "no2": 5, "co": 7, "category": "Unhealthy for Sensitive Groups"}, {"city": "Akyab", "country": "Myanmar", "lat": 20.1462, "lon": 92.8983, "aqi": 145, "pm25": 145, "ozone": 46, "no2": 0, "co": 1, "category": "Unhealthy for Sensitive Groups"}, {"city": "Alabaster", "country": "United States of America", "lat": 33.2443, "lon": -86.8164, "aqi": 80, "pm25": 80, "ozone": 18, "no2": 10, "co": 1, "category": "Moderate"}, {"city": "Alagir", "country": "Russian Federation", "lat": 43.0425, "lon": 44.2202, "aqi": 50, "pm25": 50, "ozone": 36, "no2": 1, "co": 1, "category": "Good"}, {"city": "Alma", "country": "Canada", "lat": 48.5501, "lon": -71.6491, "aqi": 55, "pm25": 55, "ozone": 27, "no2": 0, "co": 1, "category": "Moderate"}, {"city": "Almoradi", "country": "Spain", "lat": 38.1088, "lon": -0.792, "aqi": 48, "pm25": 48, "ozone": 23, "no2": 3, "co": 1, "category": "Good"}, {"city": "Ambovombe", "country": "Madagascar", "lat": -25.1784, "lon": 46.0872, "aqi": 26, "pm25": 20, "ozone": 26, "no2": 0, "co": 0, "category": "Good"}, {"city": "Anqiu", "country": "China", "lat": 36.4342, "lon": 119.1925, "aqi": 107, "pm25": 86, "ozone": 107, "no2": 5, "co": 2, "category": "Unhealthy for Sensitive Groups"}, {"city": "Antalaha", "country": "Madagascar", "lat": -14.9003, "lon": 50.2788, "aqi": 22, "pm25": 20, "ozone": 22, "no2": 0, "co": 0, "category": "Good"}, {"city": "Antioch", "country": "United States of America", "lat": 38.0049, "lon": -121.8058, "aqi": 76, "pm25": 76, "ozone": 7, "no2": 25, "co": 3, "category": "Moderate"}, {"city": "Apam", "country": "Ghana", "lat": 5.285, "lon": -0.746, "aqi": 104, "pm25": 104, "ozone": 14, "no2": 1, "co": 2, "category": "Unhealthy for Sensitive Groups"}, {"city": "Apaseo El Grande", "country": "Mexico", "lat": 20.545, "lon": -100.6846, "aqi": 60, "pm25": 60, "ozone": 16, "no2": 5, "co": 1, "category": "Moderate"}, {"city": "Armentieres", "country": "France", "lat": 50.6857, "lon": 2.8821, "aqi": 34, "pm25": 34, "ozone": 28, "no2": 2, "co": 0, "category": "Good"}, {"city": "Arsk", "country": "Russian Federation", "lat": 56.0915, "lon": 49.8778, "aqi": 28, "pm25": 19, "ozone": 28, "no2": 1, "co": 1, "category": "Good"}, {"city": "Artyom", "country": "Azerbaijan", "lat": 43.3576, "lon": 132.1914, "aqi": 48, "pm25": 48, "ozone": 35, "no2": 0, "co": 1, "category": "Good"}, {"city": "Ashtarak", "country": "Armenia", "lat": 40.2976, "lon": 44.3615, "aqi": 39, "pm25": 39, "ozone": 29, "no2": 1, "co": 1, "category": "Good"}, {"city": "Asosa", "country": "Ethiopia", "lat": 10.0667, "lon": 34.5333, "aqi": 97, "pm25": 97, "ozone": 14, "no2": 0, "co": 1, "category": "Moderate"}, {"city": "Atarra", "country": "India", "lat": 25.2862, "lon": 80.5716, "aqi": 194, "pm25": 194, "ozone": 44, "no2": 0, "co": 1, "category": "Unhealthy"}, {"city": "Avdiyivka", "country": "Ukraine", "lat": 48.1402, "lon": 37.7501, "aqi": 41, "pm25": 27, "ozone": 41, "no2": 3, "co": 1, "category": "Good"}, {"city": "Ayer Keroh", "country": "Malaysia", "lat": 2.2654, "lon": 102.2801, "aqi": 59, "pm25": 59, "ozone": 34, "no2": 0, "co": 1, "category": "Moderate"}, {"city": "Ayr", "country": "United Kingdom of Great Britain and Northern Ireland", "lat": 55.4627, "lon": -4.6339, "aqi": 29, "pm25": 20, "ozone": 29, "no2": 2, "co": 1, "category": "Good"}, {"city": "Baarn", "country": "Netherlands", "lat": 52.2117, "lon": 5.2875, "aqi": 34, "pm25": 26, "ozone": 34, "no2": 1, "co": 0, "category": "Good"}, {"city": "Backa Palanka", "country": "Serbia", "lat": 45.2497, "lon": 19.3966, "aqi": 70, "pm25": 70, "ozone": 41, "no2": 0, "co": 1, "category": "Moderate"}, {"city": "Bad Langensalza", "country": "Germany", "lat": 51.1077, "lon": 10.646, "aqi": 32, "pm25": 32, "ozone": 30, "no2": 1, "co": 0, "category": "Good"}, {"city": "Bahawalnagar", "country": "Pakistan", "lat": 29.9983, "lon": 73.2527, "aqi": 500, "pm25": 466, "ozone": 38, "no2": 1, "co": 1, "category": "Hazardous"}, {"city": "Balfour", "country": "South Africa", "lat": -26.6633, "lon": 28.5902, "aqi": 380, "pm25": 380, "ozone": 1, "no2": 26, "co": 31, "category": "Hazardous"}, {"city": "Ballitoville", "country": "South Africa", "lat": -29.539, "lon": 31.2144, "aqi": 222, "pm25": 222, "ozone": 5, "no2": 14, "co": 12, "category": "Very Unhealthy"}, {"city": "Ban Phai", "country": "Thailand", "lat": 16.06, "lon": 102.731, "aqi": 52, "pm25": 52, "ozone": 28, "no2": 0, "co": 0, "category": "Moderate"}, {"city": "Bandar Penggaram", "country": "Malaysia", "lat": 1.8548, "lon": 102.9325, "aqi": 76, "pm25": 76, "ozone": 39, "no2": 0, "co": 1, "category": "Moderate"}, {"city": "Bangued", "country": "Philippines", "lat": 17.6083, "lon": 120.6381, "aqi": 27, "pm25": 27, "ozone": 23, "no2": 0, "co": 0, "category": "Good"}, {"city": "Banovce", "country": "Slovakia", "lat": 48.7213, "lon": 18.2575, "aqi": 59, "pm25": 59, "ozone": 26, "no2": 2, "co": 1, "category": "Moderate"}, {"city": "Bartlesville", "country": "United States of America", "lat": 36.7473, "lon": -95.9808, "aqi": 56, "pm25": 56, "ozone": 23, "no2": 6, "co": 1, "category": "Moderate"}, {"city": "Bat Khela", "country": "Pakistan", "lat": 34.6178, "lon": 71.9725, "aqi": 117, "pm25": 78, "ozone": 117, "no2": 1, "co": 1, "category": "Unhealthy for Sensitive Groups"}, {"city": "Batu Gajah", "country": "Malaysia", "lat": 4.4692, "lon": 101.0411, "aqi": 92, "pm25": 92, "ozone": 57, "no2": 1, "co": 2, "category": "Moderate"}, {"city": "Bazpur", "country": "India", "lat": 29.153, "lon": 79.1081, "aqi": 182, "pm25": 182, "ozone": 170, "no2": 5, "co": 5, "category": "Unhealthy"}, {"city": "Catanzaro", "country": "Italy", "lat": 38.8825, "lon": 16.6009, "aqi": 68, "pm25": 57, "ozone": 68, "no2": 6, "co": 2, "category": "Moderate"}, {"city": "Catbalogan", "country": "Philippines", "lat": 11.7753, "lon": 124.8861, "aqi": 68, "pm25": 68, "ozone": 26, "no2": 0, "co": 1, "category": "Moderate"}, {"city": "Cayambe", "country": "Ecuador", "lat": 0.041, "lon": -78.1464, "aqi": 39, "pm25": 39, "ozone": 4, "no2": 2, "co": 1, "category": "Good"}, {"city": "Cazin", "country": "Bosnia and Herzegovina", "lat": 44.9669, "lon": 15.9431, "aqi": 50, "pm25": 50, "ozone": 33, "no2": 0, "co": 1, "category": "Good"}, {"city": "Cernusco Sul Naviglio", "country": "Italy", "lat": 45.5253, "lon": 9.333, "aqi": 103, "pm25": 103, "ozone": 33, "no2": 6, "co": 1, "category": "Unhealthy for Sensitive Groups"}, {"city": "Cesenatico", "country": "Italy", "lat": 44.1999, "lon": 12.3991, "aqi": 38, "pm25": 38, "ozone": 36, "no2": 5, "co": 1, "category": "Good"}, {"city": "Ceske Budejovice", "country": "Czechia", "lat": 48.9745, "lon": 14.4743, "aqi": 61, "pm25": 61, "ozone": 38, "no2": 1, "co": 1, "category": "Moderate"}, {"city": "Chacabuco", "country": "Argentina", "lat": -34.642, "lon": -60.4712, "aqi": 17, "pm25": 17, "ozone": 17, "no2": 1, "co": 0, "category": "Good"}, {"city": "Chachapoyas", "country": "Peru", "lat": -6.2317, "lon": -77.869, "aqi": 21, "pm25": 21, "ozone": 4, "no2": 0, "co": 0, "category": "Good"}, {"city": "Chaoyang", "country": "China", "lat": 41.5703, "lon": 120.4586, "aqi": 151, "pm25": 151, "ozone": 119, "no2": 1, "co": 3, "category": "Unhealthy"}, {"city": "Chau Doc", "country": "Viet Nam", "lat": 10.7, "lon": 105.1167, "aqi": 57, "pm25": 57, "ozone": 32, "no2": 0, "co": 1, "category": "Moderate"}, {"city": "Cherepanovo", "country": "Russian Federation", "lat": 54.2239, "lon": 83.3806, "aqi": 38, "pm25": 35, "ozone": 38, "no2": 0, "co": 1, "category": "Good"}, {"city": "Cherkessk", "country": "Russian Federation", "lat": 44.2233, "lon": 42.0578, "aqi": 49, "pm25": 49, "ozone": 40, "no2": 0, "co": 1, "category": "Good"}, {"city": "Chhabra", "country": "India", "lat": 24.6647, "lon": 76.8438, "aqi": 171, "pm25": 171, "ozone": 42, "no2": 0, "co": 1, "category": "Unhealthy"}, {"city": "Chilpancingo", "country": "Mexico", "lat": 17.5523, "lon": -99.5012, "aqi": 72, "pm25": 72, "ozone": 4, "no2": 5, "co": 2, "category": "Moderate"}, {"city": "Chipurupalle", "country": "India", "lat": 18.3114, "lon": 83.5685, "aqi": 153, "pm25": 153, "ozone": 22, "no2": 6, "co": 2, "category": "Unhealthy"}, {"city": "Chotila", "country": "India", "lat": 22.4235, "lon": 71.1964, "aqi": 157, "pm25": 157, "ozone": 31, "no2": 1, "co": 0, "category": "Unhealthy"}, {"city": "Cimarron Hills", "country": "United States of America", "lat": 38.8586, "lon": -104.6989, "aqi": 73, "pm25": 73, "ozone": 32, "no2": 2, "co": 1, "category": "Moderate"}, {"city": "Coari", "country": "Brazil", "lat": -4.085, "lon": -63.1414, "aqi": 46, "pm25": 46, "ozone": 2, "no2": 0, "co": 1, "category": "Good"}, {"city": "Coatbridge", "country": "United Kingdom of Great Britain and Northern Ireland", "lat": 55.8622, "lon": -4.0247, "aqi": 35, "pm25": 35, "ozone": 12, "no2": 9, "co": 1, "category": "Good"}, {"city": "Colatina", "country": "Brazil", "lat": -19.5394, "lon": -40.6306, "aqi": 45, "pm25": 45, "ozone": 14, "no2": 2, "co": 1, "category": "Good"}, {"city": "Comanesti", "country": "Romania", "lat": 46.4213, "lon": 26.4365, "aqi": 61, "pm25": 61, "ozone": 40, "no2": 0, "co": 1, "category": "Moderate"}, {"city": "Como", "country": "Italy", "lat": 45.8082, "lon": 9.0832, "aqi": 112, "pm25": 112, "ozone": 34, "no2": 4, "co": 1, "category": "Unhealthy for Sensitive Groups"}, {"city": "Conde", "country": "Brazil", "lat": -7.2597, "lon": -34.9075, "aqi": 19, "pm25": 11, "ozone": 19, "no2": 0, "co": 0, "category": "Good"}, {"city": "Consett", "country": "United Kingdom of Great Britain and Northern Ireland", "lat": 54.854, "lon": -1.8316, "aqi": 31, "pm25": 22, "ozone": 31, "no2": 2, "co": 0, "category": "Good"}, {"city": "Cooper City", "country": "United States of America", "lat": 26.0573, "lon": -80.2717, "aqi": 152, "pm25": 152, "ozone": 4, "no2": 19, "co": 4, "category": "Unhealthy"}, {"city": "Copperas Cove", "country": "United States of America", "lat": 31.1241, "lon": -97.9031, "aqi": 31, "pm25": 31, "ozone": 21, "no2": 1, "co": 1, "category": "Good"}, {"city": "Corrientes", "country": "Argentina", "lat": -27.4678, "lon": -58.8344, "aqi": 13, "pm25": 13, "ozone": 12, "no2": 0, "co": 1, "category": "Good"}, {"city": "Culleredo", "country": "Spain", "lat": 43.2879, "lon": -8.3886, "aqi": 30, "pm25": 13, "ozone": 30, "no2": 2, "co": 0, "category": "Good"}, {"city": "Cuncolim", "country": "India", "lat": 15.1773, "lon": 73.9939, "aqi": 73, "pm25": 73, "ozone": 25, "no2": 0, "co": 0, "category": "Moderate"}, {"city": "Curvelo", "country": "Brazil", "lat": -18.7564, "lon": -44.4308, "aqi": 42, "pm25": 42, "ozone": 2, "no2": 4, "co": 1, "category": "Good"}, {"city": "Cuxhaven", "country": "Germany", "lat": 53.8683, "lon": 8.699, "aqi": 35, "pm25": 30, "ozone": 35, "no2": 0, "co": 0, "category": "Good"}, {"city": "Czestochowa", "country": "Poland", "lat": 50.7965, "lon": 19.1241, "aqi": 93, "pm25": 93, "ozone": 27, "no2": 4, "co": 1, "category": "Moderate"}, {"city": "Beaune", "country": "France", "lat": 47.0241, "lon": 4.8389, "aqi": 39, "pm25": 39, "ozone": 26, "no2": 1, "co": 1, "category": "Good"}, {"city": "Bedford", "country": "United States of America", "lat": 32.844, "lon": -97.1431, "aqi": 56, "pm25": 56, "ozone": 18, "no2": 6, "co": 1, "category": "Moderate"}, {"city": "Begoro", "country": "Ghana", "lat": 6.3871, "lon": -0.3774, "aqi": 105, "pm25": 105, "ozone": 13, "no2": 2, "co": 2, "category": "Unhealthy for Sensitive Groups"}, {"city": "Beipiao", "country": "China", "lat": 41.7919, "lon": 120.7792, "aqi": 93, "pm25": 93, "ozone": 90, "no2": 1, "co": 2, "category": "Moderate"}, {"city": "Bela Cruz", "country": "Brazil", "lat": -3.0506, "lon": -40.1678, "aqi": 45, "pm25": 45, "ozone": 22, "no2": 0, "co": 0, "category": "Good"}, {"city": "Bermejo", "country": "Bolivia (Plurinational State of)", "lat": -22.7321, "lon": -64.3372, "aqi": 54, "pm25": 54, "ozone": 8, "no2": 1, "co": 1, "category": "Moderate"}, {"city": "Bernburg", "country": "Germany", "lat": 51.7946, "lon": 11.7401, "aqi": 36, "pm25": 36, "ozone": 29, "no2": 2, "co": 0, "category": "Good"}, {"city": "Berwick", "country": "United States of America", "lat": -38.0333, "lon": 145.35, "aqi": 50, "pm25": 50, "ozone": 35, "no2": 5, "co": 1, "category": "Good"}, {"city": "Betma", "country": "India", "lat": 22.6865, "lon": 75.6146, "aqi": 153, "pm25": 153, "ozone": 34, "no2": 0, "co": 1, "category": "Unhealthy"}, {"city": "Beverly", "country": "United States of America", "lat": 42.5584, "lon": -70.88, "aqi": 48, "pm25": 48, "ozone": 36, "no2": 5, "co": 1, "category": "Good"}, {"city": "Bezhetsk", "country": "Russian Federation", "lat": 57.7842, "lon": 36.7008, "aqi": 24, "pm25": 24, "ozone": 24, "no2": 0, "co": 0, "category": "Good"}, {"city": "Bhairab Bazar", "country": "Bangladesh", "lat": 24.0524, "lon": 90.9764, "aqi": 132, "pm25": 132, "ozone": 44, "no2": 4, "co": 3, "category": "Unhealthy for Sensitive Groups"}, {"city": "Bhalwal", "country": "Pakistan", "lat": 32.2658, "lon": 72.8981, "aqi": 179, "pm25": 166, "ozone": 179, "no2": 2, "co": 3, "category": "Unhealthy"}, {"city": "Bhimavaram", "country": "India", "lat": 16.5408, "lon": 81.5232, "aqi": 124, "pm25": 124, "ozone": 36, "no2": 1, "co": 1, "category": "Unhealthy for Sensitive Groups"}, {"city": "Bhinmal", "country": "India", "lat": 24.9994, "lon": 72.2714, "aqi": 202, "pm25": 202, "ozone": 34, "no2": 0, "co": 0, "category": "Very Unhealthy"}, {"city": "Bhiwandi", "country": "India", "lat": 19.3002, "lon": 73.0588, "aqi": 151, "pm25": 151, "ozone": 26, "no2": 1, "co": 1, "category": "Unhealthy"}, {"city": "Binjai", "country": "Indonesia", "lat": 3.6001, "lon": 98.4854, "aqi": 92, "pm25": 92, "ozone": 45, "no2": 0, "co": 2, "category": "Moderate"}, {"city": "Baiao", "country": "Brazil", "lat": 41.1627, "lon": -8.0347, "aqi": 39, "pm25": 39, "ozone": 5, "no2": 0, "co": 1, "category": "Good"}, {"city": "Baksan", "country": "Russian Federation", "lat": 43.6837, "lon": 43.5351, "aqi": 48, "pm25": 48, "ozone": 39, "no2": 1, "co": 1, "category": "Good"}, {"city": "Bara", "country": "Sudan", "lat": 13.7, "lon": 30.3667, "aqi": 52, "pm25": 52, "ozone": 17, "no2": 0, "co": 2, "category": "Moderate"}, {"city": "Baranoa", "country": "Colombia", "lat": 10.7941, "lon": -74.9164, "aqi": 104, "pm25": 104, "ozone": 16, "no2": 2, "co": 1, "category": "Unhealthy for Sensitive Groups"}, {"city": "Baras", "country": "Philippines", "lat": 14.5169, "lon": 121.2658, "aqi": 51, "pm25": 51, "ozone": 27, "no2": 1, "co": 1, "category": "Moderate"}, {"city": "Bardsir", "country": "Iran (Islamic Republic of)", "lat": 29.9227, "lon": 56.5743, "aqi": 91, "pm25": 91, "ozone": 49, "no2": 0, "co": 1, "category": "Moderate"}, {"city": "Bari Sadri", "country": "India", "lat": 24.4134, "lon": 74.4733, "aqi": 167, "pm25": 167, "ozone": 32, "no2": 0, "co": 1, "category": "Unhealthy"}, {"city": "Norwich", "country": "United Kingdom of Great Britain and Northern Ireland", "lat": 52.6278, "lon": 1.2983, "aqi": 29, "pm25": 18, "ozone": 29, "no2": 3, "co": 0, "category": "Good"}, {"city": "Nuenen", "country": "Netherlands", "lat": 51.47, "lon": 5.5528, "aqi": 37, "pm25": 37, "ozone": 32, "no2": 3, "co": 1, "category": "Good"}, {"city": "Nueva Imperial", "country": "Chile", "lat": -38.7445, "lon": -72.9502, "aqi": 61, "pm25": 61, "ozone": 2, "no2": 9, "co": 2, "category": "Moderate"}, {"city": "Nuevo Casas Grandes", "country": "Mexico", "lat": 30.4155, "lon": -107.9117, "aqi": 46, "pm25": 46, "ozone": 17, "no2": 2, "co": 1, "category": "Good"}, {"city": "Oak Lawn", "country": "United States of America", "lat": 41.7109, "lon": -87.7581, "aqi": 79, "pm25": 79, "ozone": 13, "no2": 27, "co": 2, "category": "Moderate"}, {"city": "Oakdale", "country": "United States of America", "lat": 44.963, "lon": -92.9649, "aqi": 53, "pm25": 53, "ozone": 24, "no2": 9, "co": 1, "category": "Moderate"}, {"city": "Obuasi", "country": "Ghana", "lat": 6.2023, "lon": -1.668, "aqi": 81, "pm25": 81, "ozone": 18, "no2": 0, "co": 1, "category": "Moderate"}, {"city": "Odawara", "country": "Japan", "lat": 35.2556, "lon": 139.1597, "aqi": 39, "pm25": 39, "ozone": 38, "no2": 2, "co": 1, "category": "Good"}, {"city": "Ohrid", "country": "Republic of North Macedonia", "lat": 41.1172, "lon": 20.8019, "aqi": 42, "pm25": 42, "ozone": 41, "no2": 0, "co": 1, "category": "Good"}, {"city": "Okawa", "country": "Japan", "lat": 34.9667, "lon": 136.9667, "aqi": 41, "pm25": 41, "ozone": 36, "no2": 5, "co": 2, "category": "Good"}, {"city": "Olecko", "country": "Poland", "lat": 54.0337, "lon": 22.507, "aqi": 47, "pm25": 47, "ozone": 36, "no2": 0, "co": 1, "category": "Good"}, {"city": "Olindina", "country": "Brazil", "lat": -11.3667, "lon": -38.3333, "aqi": 25, "pm25": 25, "ozone": 6, "no2": 1, "co": 0, "category": "Good"}, {"city": "Omagari", "country": "Japan", "lat": 39.45, "lon": 140.4833, "aqi": 35, "pm25": 15, "ozone": 35, "no2": 0, "co": 1, "category": "Good"}, {"city": "Orem", "country": "United States of America", "lat": 40.2969, "lon": -111.6946, "aqi": 73, "pm25": 73, "ozone": 26, "no2": 7, "co": 2, "category": "Moderate"}, {"city": "Orinda", "country": "United States of America", "lat": 37.8772, "lon": -122.1797, "aqi": 52, "pm25": 52, "ozone": 22, "no2": 11, "co": 1, "category": "Moderate"}, {"city": "Ostuncalco", "country": "Guatemala", "lat": 14.869, "lon": -91.6214, "aqi": 94, "pm25": 94, "ozone": 9, "no2": 11, "co": 3, "category": "Moderate"}, {"city": "Ouesso", "country": "Congo", "lat": 1.6136, "lon": 16.0517, "aqi": 71, "pm25": 71, "ozone": 18, "no2": 0, "co": 3, "category": "Moderate"}, {"city": "Ouro Preto", "country": "Brazil", "lat": -20.3948, "lon": -43.5052, "aqi": 61, "pm25": 61, "ozone": 3, "no2": 5, "co": 2, "category": "Moderate"}, {"city": "Oyo", "country": "Nigeria", "lat": 7.8537, "lon": 3.9324, "aqi": 80, "pm25": 80, "ozone": 22, "no2": 1, "co": 2, "category": "Moderate"}, {"city": "Ozgon", "country": "Kyrgyzstan", "lat": 40.7699, "lon": 73.3007, "aqi": 101, "pm25": 101, "ozone": 60, "no2": 0, "co": 1, "category": "Unhealthy for Sensitive Groups"}, {"city": "Pachino", "country": "Italy", "lat": 36.7152, "lon": 15.0902, "aqi": 48, "pm25": 48, "ozone": 45, "no2": 0, "co": 1, "category": "Good"}, {"city": "Padra", "country": "India", "lat": 22.2398, "lon": 73.0845, "aqi": 156, "pm25": 156, "ozone": 33, "no2": 0, "co": 1, "category": "Unhealthy"}, {"city": "Paita", "country": "France", "lat": -5.0892, "lon": -81.1144, "aqi": 27, "pm25": 10, "ozone": 27, "no2": 0, "co": 0, "category": "Good"}, {"city": "Palakkodu", "country": "India", "lat": 12.307, "lon": 78.0702, "aqi": 57, "pm25": 57, "ozone": 30, "no2": 0, "co": 0, "category": "Moderate"}, {"city": "Palo", "country": "Philippines", "lat": 11.1575, "lon": 124.9908, "aqi": 55, "pm25": 55, "ozone": 20, "no2": 0, "co": 1, "category": "Moderate"}, {"city": "Pamekasan", "country": "Indonesia", "lat": -7.1568, "lon": 113.4746, "aqi": 54, "pm25": 54, "ozone": 35, "no2": 0, "co": 1, "category": "Moderate"}, {"city": "Panchiao", "country": "China", "lat": 25.0143, "lon": 121.4672, "aqi": 69, "pm25": 69, "ozone": 45, "no2": 4, "co": 1, "category": "Moderate"}, {"city": "Panshi", "country": "China", "lat": 42.9372, "lon": 126.0574, "aqi": 76, "pm25": 76, "ozone": 32, "no2": 2, "co": 3, "category": "Moderate"}, {"city": "Panzhihua", "country": "China", "lat": 26.5851, "lon": 101.7128, "aqi": 74, "pm25": 74, "ozone": 29, "no2": 2, "co": 3, "category": "Moderate"}, {"city": "Paragominas", "country": "Brazil", "lat": -2.9956, "lon": -47.3549, "aqi": 36, "pm25": 36, "ozone": 2, "no2": 0, "co": 1, "category": "Good"}, {"city": "Paraguacu", "country": "Brazil", "lat": -22.4128, "lon": -50.5758, "aqi": 51, "pm25": 51, "ozone": 7, "no2": 4, "co": 1, "category": "Moderate"}, {"city": "Paramonga", "country": "Peru", "lat": -10.6667, "lon": -77.8333, "aqi": 41, "pm25": 41, "ozone": 18, "no2": 1, "co": 1, "category": "Good"}, {"city": "Parkville", "country": "United States of America", "lat": 39.3773, "lon": -76.5397, "aqi": 56, "pm25": 56, "ozone": 44, "no2": 4, "co": 1, "category": "Moderate"}, {"city": "Pasadena", "country": "United States of America", "lat": 29.6911, "lon": -95.2091, "aqi": 58, "pm25": 58, "ozone": 43, "no2": 5, "co": 1, "category": "Moderate"}, {"city": "Pataskala", "country": "United States of America", "lat": 39.9956, "lon": -82.6743, "aqi": 45, "pm25": 45, "ozone": 32, "no2": 7, "co": 1, "category": "Good"}, {"city": "Pavlodar", "country": "Kazakhstan", "lat": 52.276, "lon": 76.9688, "aqi": 50, "pm25": 50, "ozone": 41, "no2": 0, "co": 1, "category": "Good"}, {"city": "Payyannur", "country": "India", "lat": 12.0935, "lon": 75.2025, "aqi": 68, "pm25": 68, "ozone": 24, "no2": 0, "co": 0, "category": "Moderate"}, {"city": "Pelham", "country": "United States of America", "lat": 33.2857, "lon": -86.81, "aqi": 46, "pm25": 31, "ozone": 46, "no2": 2, "co": 1, "category": "Good"}, {"city": "Perama", "country": "Greece", "lat": 37.9678, "lon": 23.5721, "aqi": 67, "pm25": 67, "ozone": 44, "no2": 2, "co": 1, "category": "Moderate"}, {"city": "Perote", "country": "Mexico", "lat": 19.5623, "lon": -97.2424, "aqi": 77, "pm25": 77, "ozone": 7, "no2": 8, "co": 3, "category": "Moderate"}, {"city": "Phatthalung", "country": "Thailand", "lat": 7.6179, "lon": 100.0779, "aqi": 59, "pm25": 59, "ozone": 27, "no2": 0, "co": 1, "category": "Moderate"}, {"city": "Phetchaburi", "country": "Thailand", "lat": 13.1119, "lon": 99.9447, "aqi": 35, "pm25": 35, "ozone": 17, "no2": 0, "co": 0, "category": "Good"}, {"city": "Phillaur", "country": "India", "lat": 31.0189, "lon": 75.7911, "aqi": 444, "pm25": 391, "ozone": 111, "no2": 1, "co": 2, "category": "Hazardous"}, {"city": "Rosetta", "country": "Egypt", "lat": 31.3995, "lon": 30.4172, "aqi": 60, "pm25": 55, "ozone": 60, "no2": 3, "co": 2, "category": "Moderate"}, {"city": "Rostov", "country": "Russian Federation", "lat": 47.2313, "lon": 39.7233, "aqi": 32, "pm25": 26, "ozone": 32, "no2": 0, "co": 1, "category": "Good"}, {"city": "Royton", "country": "United Kingdom of Great Britain and Northern Ireland", "lat": 53.5651, "lon": -2.1227, "aqi": 56, "pm25": 56, "ozone": 32, "no2": 1, "co": 0, "category": "Moderate"}, {"city": "Rudolstadt", "country": "Germany", "lat": 50.7204, "lon": 11.3405, "aqi": 32, "pm25": 30, "ozone": 32, "no2": 1, "co": 1, "category": "Good"}, {"city": "Rumphi", "country": "Malawi", "lat": -11.0186, "lon": 33.8575, "aqi": 28, "pm25": 28, "ozone": 19, "no2": 0, "co": 0, "category": "Good"}, {"city": "Ruy Barbosa", "country": "Brazil", "lat": -26.8769, "lon": -52.4042, "aqi": 18, "pm25": 18, "ozone": 8, "no2": 0, "co": 0, "category": "Good"}, {"city": "Sabac", "country": "Serbia", "lat": 44.7467, "lon": 19.69, "aqi": 68, "pm25": 68, "ozone": 32, "no2": 1, "co": 1, "category": "Moderate"}, {"city": "Sagua La Grande", "country": "Cuba", "lat": 22.8067, "lon": -80.0756, "aqi": 89, "pm25": 89, "ozone": 22, "no2": 1, "co": 1, "category": "Moderate"}, {"city": "Sahibganj", "country": "India", "lat": 25.2443, "lon": 87.6348, "aqi": 208, "pm25": 208, "ozone": 152, "no2": 1, "co": 3, "category": "Very Unhealthy"}, {"city": "Saint Matthews", "country": "United States of America", "lat": 38.2529, "lon": -85.6558, "aqi": 58, "pm25": 58, "ozone": 29, "no2": 12, "co": 2, "category": "Moderate"}, {"city": "Saint Thomas", "country": "Canada", "lat": 42.7736, "lon": -81.1804, "aqi": 35, "pm25": 34, "ozone": 35, "no2": 3, "co": 1, "category": "Good"}, {"city": "Sakakah", "country": "Saudi Arabia", "lat": 29.9697, "lon": 40.2064, "aqi": 122, "pm25": 122, "ozone": 49, "no2": 0, "co": 1, "category": "Unhealthy for Sensitive Groups"}, {"city": "Sakurai", "country": "Japan", "lat": 34.5, "lon": 135.85, "aqi": 40, "pm25": 34, "ozone": 40, "no2": 2, "co": 1, "category": "Good"}, {"city": "Salford", "country": "United Kingdom of Great Britain and Northern Ireland", "lat": 53.4877, "lon": -2.2904, "aqi": 58, "pm25": 58, "ozone": 32, "no2": 1, "co": 0, "category": "Moderate"}, {"city": "Salon", "country": "India", "lat": 43.6423, "lon": 5.0948, "aqi": 303, "pm25": 260, "ozone": 48, "no2": 0, "co": 1, "category": "Hazardous"}, {"city": "Salvador", "country": "Brazil", "lat": -12.9756, "lon": -38.491, "aqi": 30, "pm25": 30, "ozone": 16, "no2": 1, "co": 0, "category": "Good"}, {"city": "Sambhar", "country": "India", "lat": 26.9081, "lon": 75.1914, "aqi": 193, "pm25": 193, "ozone": 38, "no2": 0, "co": 0, "category": "Unhealthy"}, {"city": "Samsun", "country": "Turkey", "lat": 41.2798, "lon": 36.3361, "aqi": 36, "pm25": 30, "ozone": 36, "no2": 0, "co": 1, "category": "Good"}, {"city": "Prabumulih", "country": "Indonesia", "lat": -3.4345, "lon": 104.2306, "aqi": 49, "pm25": 49, "ozone": 30, "no2": 0, "co": 1, "category": "Good"}, {"city": "Presidente Prudente", "country": "Brazil", "lat": -22.1256, "lon": -51.3889, "aqi": 32, "pm25": 32, "ozone": 14, "no2": 1, "co": 1, "category": "Good"}, {"city": "Prichard", "country": "United States of America", "lat": 30.7388, "lon": -88.0789, "aqi": 28, "pm25": 28, "ozone": 22, "no2": 4, "co": 1, "category": "Good"}, {"city": "Prince George", "country": "Canada", "lat": 53.9166, "lon": -122.753, "aqi": 21, "pm25": 13, "ozone": 21, "no2": 1, "co": 1, "category": "Good"}, {"city": "Pucallpa", "country": "Peru", "lat": -8.3791, "lon": -74.5539, "aqi": 30, "pm25": 30, "ozone": 1, "no2": 0, "co": 1, "category": "Good"}, {"city": "Puertollano", "country": "Spain", "lat": 38.6871, "lon": -4.1073, "aqi": 32, "pm25": 32, "ozone": 30, "no2": 1, "co": 1, "category": "Good"}, {"city": "Qiryat Gat", "country": "Israel", "lat": 31.61, "lon": 34.7642, "aqi": 80, "pm25": 80, "ozone": 62, "no2": 4, "co": 1, "category": "Moderate"}, {"city": "Quillota", "country": "Chile", "lat": -32.8834, "lon": -71.2488, "aqi": 182, "pm25": 182, "ozone": 1, "no2": 23, "co": 14, "category": "Unhealthy"}, {"city": "Rafiganj", "country": "India", "lat": 24.8176, "lon": 84.6345, "aqi": 356, "pm25": 284, "ozone": 60, "no2": 0, "co": 1, "category": "Hazardous"}, {"city": "Rahway", "country": "United States of America", "lat": 40.6082, "lon": -74.2776, "aqi": 62, "pm25": 62, "ozone": 44, "no2": 5, "co": 1, "category": "Moderate"}, {"city": "Rajshahi", "country": "Bangladesh", "lat": 24.374, "lon": 88.6011, "aqi": 191, "pm25": 191, "ozone": 133, "no2": 2, "co": 2, "category": "Unhealthy"}, {"city": "Phulpur", "country": "India", "lat": 25.549, "lon": 82.0895, "aqi": 226, "pm25": 226, "ozone": 48, "no2": 1, "co": 1, "category": "Very Unhealthy"}, {"city": "Picos", "country": "Brazil", "lat": -7.0769, "lon": -41.4669, "aqi": 16, "pm25": 16, "ozone": 12, "no2": 0, "co": 0, "category": "Good"}, {"city": "Pietarsaari", "country": "Finland", "lat": 63.6749, "lon": 22.7026, "aqi": 34, "pm25": 17, "ozone": 34, "no2": 1, "co": 1, "category": "Good"}, {"city": "Pirmasens", "country": "Germany", "lat": 49.2015, "lon": 7.6053, "aqi": 30, "pm25": 30, "ozone": 27, "no2": 2, "co": 1, "category": "Good"}, {"city": "Plum", "country": "United States of America", "lat": 40.5003, "lon": -79.7495, "aqi": 55, "pm25": 55, "ozone": 26, "no2": 12, "co": 2, "category": "Moderate"}, {"city": "Pobe", "country": "Benin", "lat": 6.9801, "lon": 2.6649, "aqi": 73, "pm25": 73, "ozone": 20, "no2": 1, "co": 1, "category": "Moderate"}, {"city": "Port Loko", "country": "Sierra Leone", "lat": 8.7661, "lon": -12.787, "aqi": 48, "pm25": 48, "ozone": 16, "no2": 0, "co": 1, "category": "Good"}, {"city": "Poughkeepsie", "country": "United States of America", "lat": 41.7004, "lon": -73.921, "aqi": 43, "pm25": 39, "ozone": 43, "no2": 2, "co": 1, "category": "Good"}, {"city": "Randallstown", "country": "United States of America", "lat": 39.3673, "lon": -76.7952, "aqi": 52, "pm25": 52, "ozone": 44, "no2": 4, "co": 1, "category": "Moderate"}, {"city": "Rania", "country": "India", "lat": 29.5245, "lon": 74.8369, "aqi": 500, "pm25": 464, "ozone": 40, "no2": 0, "co": 1, "category": "Hazardous"}, {"city": "Ranong", "country": "Thailand", "lat": 9.9658, "lon": 98.6348, "aqi": 36, "pm25": 36, "ozone": 16, "no2": 0, "co": 0, "category": "Good"}, {"city": "Rathenow", "country": "Germany", "lat": 52.6066, "lon": 12.337, "aqi": 39, "pm25": 23, "ozone": 39, "no2": 0, "co": 0, "category": "Good"}, {"city": "Reutov", "country": "Russian Federation", "lat": 55.7627, "lon": 37.863, "aqi": 58, "pm25": 58, "ozone": 25, "no2": 9, "co": 1, "category": "Moderate"}, {"city": "Ribeira Do Pombal", "country": "Brazil", "lat": -10.8344, "lon": -38.5358, "aqi": 24, "pm25": 24, "ozone": 7, "no2": 1, "co": 0, "category": "Good"}, {"city": "Richardson", "country": "United States of America", "lat": 32.9482, "lon": -96.7297, "aqi": 56, "pm25": 56, "ozone": 21, "no2": 6, "co": 1, "category": "Moderate"}, {"city": "Richmond", "country": "United States of America", "lat": 37.5538, "lon": -77.4603, "aqi": 76, "pm25": 76, "ozone": 15, "no2": 17, "co": 2, "category": "Moderate"}, {"city": "Rio Bonito", "country": "Brazil", "lat": -22.7086, "lon": -42.6097, "aqi": 95, "pm25": 95, "ozone": 23, "no2": 8, "co": 3, "category": "Moderate"}, {"city": "Rioja", "country": "Peru", "lat": -6.0568, "lon": -77.1665, "aqi": 25, "pm25": 25, "ozone": 3, "no2": 0, "co": 1, "category": "Good"}, {"city": "Riom", "country": "France", "lat": 45.8936, "lon": 3.1126, "aqi": 40, "pm25": 40, "ozone": 30, "no2": 1, "co": 1, "category": "Good"}, {"city": "Rodez", "country": "France", "lat": 44.3526, "lon": 2.5734, "aqi": 42, "pm25": 42, "ozone": 31, "no2": 1, "co": 1, "category": "Good"}, {"city": "Romblon", "country": "Philippines", "lat": 12.5751, "lon": 122.2708, "aqi": 50, "pm25": 50, "ozone": 23, "no2": 0, "co": 1, "category": "Good"}, {"city": "Daly City", "country": "United States of America", "lat": 37.7058, "lon": -122.4619, "aqi": 62, "pm25": 62, "ozone": 18, "no2": 13, "co": 1, "category": "Moderate"}, {"city": "Damnagar", "country": "India", "lat": 21.6923, "lon": 71.5175, "aqi": 152, "pm25": 152, "ozone": 29, "no2": 0, "co": 0, "category": "Unhealthy"}, {"city": "Dan Khun Thot", "country": "Thailand", "lat": 15.2085, "lon": 101.7714, "aqi": 56, "pm25": 56, "ozone": 31, "no2": 0, "co": 1, "category": "Moderate"}, {"city": "Dancheng", "country": "China", "lat": 33.6333, "lon": 115.1833, "aqi": 145, "pm25": 82, "ozone": 145, "no2": 3, "co": 2, "category": "Unhealthy for Sensitive Groups"}, {"city": "Dareda", "country": "United Republic of Tanzania", "lat": -4.2167, "lon": 35.55, "aqi": 20, "pm25": 20, "ozone": 14, "no2": 0, "co": 0, "category": "Good"}, {"city": "Dattapur", "country": "India", "lat": 20.7808, "lon": 78.1407, "aqi": 153, "pm25": 153, "ozone": 29, "no2": 0, "co": 0, "category": "Unhealthy"}, {"city": "Delmiro Gouveia", "country": "Brazil", "lat": -9.3886, "lon": -37.9992, "aqi": 25, "pm25": 25, "ozone": 9, "no2": 1, "co": 0, "category": "Good"}, {"city": "Delta Del Tigre", "country": "Uruguay", "lat": -34.7649, "lon": -56.3645, "aqi": 38, "pm25": 38, "ozone": 19, "no2": 2, "co": 1, "category": "Good"}, {"city": "Desnogorsk", "country": "Russian Federation", "lat": 54.1508, "lon": 33.2815, "aqi": 34, "pm25": 10, "ozone": 34, "no2": 0, "co": 1, "category": "Good"}, {"city": "Develi", "country": "Turkey", "lat": 38.3906, "lon": 35.4922, "aqi": 46, "pm25": 46, "ozone": 29, "no2": 0, "co": 1, "category": "Good"}, {"city": "Dinar", "country": "Turkey", "lat": 38.065, "lon": 30.1656, "aqi": 44, "pm25": 44, "ozone": 33, "no2": 0, "co": 1, "category": "Good"}, {"city": "Dniprorudne", "country": "Ukraine", "lat": 47.3899, "lon": 35.0007, "aqi": 39, "pm25": 12, "ozone": 39, "no2": 0, "co": 1, "category": "Good"}, {"city": "Dogbo", "country": "Benin", "lat": 6.7991, "lon": 1.7807, "aqi": 101, "pm25": 101, "ozone": 18, "no2": 2, "co": 3, "category": "Unhealthy for Sensitive Groups"}, {"city": "Donskoye", "country": "Russian Federation", "lat": 45.4535, "lon": 41.9724, "aqi": 37, "pm25": 30, "ozone": 37, "no2": 0, "co": 1, "category": "Good"}, {"city": "Dumas", "country": "United States of America", "lat": 35.8656, "lon": -101.9732, "aqi": 60, "pm25": 60, "ozone": 22, "no2": 3, "co": 1, "category": "Moderate"}, {"city": "Dyersburg", "country": "United States of America", "lat": 36.0345, "lon": -89.3856, "aqi": 93, "pm25": 93, "ozone": 24, "no2": 5, "co": 1, "category": "Moderate"}, {"city": "Ebano", "country": "Mexico", "lat": 22.2181, "lon": -98.3771, "aqi": 91, "pm25": 91, "ozone": 22, "no2": 3, "co": 2, "category": "Moderate"}, {"city": "El Pueblito", "country": "Mexico", "lat": 20.5401, "lon": -100.4409, "aqi": 66, "pm25": 66, "ozone": 10, "no2": 5, "co": 1, "category": "Moderate"}, {"city": "El Torno", "country": "Bolivia (Plurinational State of)", "lat": -18.0001, "lon": -63.3871, "aqi": 6, "pm25": 6, "ozone": 5, "no2": 0, "co": 0, "category": "Good"}, {"city": "Ellicott City", "country": "United States of America", "lat": 39.2673, "lon": -76.7983, "aqi": 44, "pm25": 44, "ozone": 27, "no2": 10, "co": 1, "category": "Good"}, {"city": "Eminabad", "country": "Pakistan", "lat": 32.0424, "lon": 74.26, "aqi": 153, "pm25": 152, "ozone": 153, "no2": 1, "co": 3, "category": "Unhealthy"}, {"city": "Ena", "country": "Japan", "lat": 35.4472, "lon": 137.3833, "aqi": 42, "pm25": 12, "ozone": 42, "no2": 0, "co": 1, "category": "Good"}, {"city": "Giussano", "country": "Italy", "lat": 45.7, "lon": 9.2089, "aqi": 62, "pm25": 62, "ozone": 32, "no2": 4, "co": 1, "category": "Moderate"}, {"city": "Glenrothes", "country": "United Kingdom of Great Britain and Northern Ireland", "lat": 56.1951, "lon": -3.1732, "aqi": 35, "pm25": 35, "ozone": 22, "no2": 6, "co": 1, "category": "Good"}, {"city": "Glossop", "country": "United Kingdom of Great Britain and Northern Ireland", "lat": 53.4432, "lon": -1.949, "aqi": 27, "pm25": 27, "ozone": 25, "no2": 3, "co": 1, "category": "Good"}, {"city": "Gobabis", "country": "Namibia", "lat": -22.4534, "lon": 18.9716, "aqi": 19, "pm25": 19, "ozone": 18, "no2": 0, "co": 0, "category": "Good"}, {"city": "Gobindpur", "country": "India", "lat": 22.6339, "lon": 86.0716, "aqi": 175, "pm25": 175, "ozone": 51, "no2": 1, "co": 1, "category": "Unhealthy"}, {"city": "Gohad", "country": "India", "lat": 26.4328, "lon": 78.442, "aqi": 194, "pm25": 194, "ozone": 46, "no2": 0, "co": 1, "category": "Unhealthy"}, {"city": "Gohana", "country": "India", "lat": 29.1378, "lon": 76.7025, "aqi": 500, "pm25": 500, "ozone": 47, "no2": 1, "co": 1, "category": "Hazardous"}, {"city": "Goiatuba", "country": "Brazil", "lat": -18.0125, "lon": -49.3547, "aqi": 37, "pm25": 37, "ozone": 3, "no2": 3, "co": 1, "category": "Good"}, {"city": "Goirle", "country": "Netherlands", "lat": 51.5208, "lon": 5.0667, "aqi": 30, "pm25": 27, "ozone": 30, "no2": 2, "co": 0, "category": "Good"}, {"city": "Golden Glades", "country": "United States of America", "lat": 25.9118, "lon": -80.2003, "aqi": 61, "pm25": 61, "ozone": 10, "no2": 16, "co": 1, "category": "Moderate"}, {"city": "Goleniow", "country": "Poland", "lat": 53.5639, "lon": 14.8285, "aqi": 32, "pm25": 32, "ozone": 24, "no2": 3, "co": 1, "category": "Good"}, {"city": "Gorodishche", "country": "Russian Federation", "lat": 48.8026, "lon": 44.4749, "aqi": 33, "pm25": 21, "ozone": 33, "no2": 1, "co": 1, "category": "Good"}, {"city": "Gotsu", "country": "Japan", "lat": 35.0086, "lon": 132.2257, "aqi": 44, "pm25": 15, "ozone": 44, "no2": 0, "co": 1, "category": "Good"}, {"city": "Granger", "country": "United States of America", "lat": 41.7534, "lon": -86.1108, "aqi": 57, "pm25": 57, "ozone": 21, "no2": 11, "co": 2, "category": "Moderate"}, {"city": "Grants Pass", "country": "United States of America", "lat": 42.4393, "lon": -123.3307, "aqi": 29, "pm25": 27, "ozone": 29, "no2": 2, "co": 1, "category": "Good"}, {"city": "Granville", "country": "", "lat": -33.8406, "lon": 151.0075, "aqi": 30, "pm25": 25, "ozone": 30, "no2": 3, "co": 1, "category": "Good"}, {"city": "Guasave", "country": "Mexico", "lat": 25.5679, "lon": -108.4695, "aqi": 35, "pm25": 35, "ozone": 22, "no2": 1, "co": 1, "category": "Good"}, {"city": "Guben", "country": "Germany", "lat": 51.9499, "lon": 14.7055, "aqi": 37, "pm25": 37, "ozone": 21, "no2": 4, "co": 1, "category": "Good"}, {"city": "Guider", "country": "Cameroon", "lat": 9.9333, "lon": 13.9467, "aqi": 76, "pm25": 76, "ozone": 8, "no2": 1, "co": 3, "category": "Moderate"}, {"city": "Guilin", "country": "China", "lat": 25.2802, "lon": 110.2964, "aqi": 90, "pm25": 90, "ozone": 46, "no2": 3, "co": 3, "category": "Moderate"}, {"city": "Fort Walton Beach", "country": "United States of America", "lat": 30.4206, "lon": -86.6171, "aqi": 65, "pm25": 65, "ozone": 30, "no2": 1, "co": 1, "category": "Moderate"}, {"city": "Fountain Hills", "country": "United States of America", "lat": 33.6117, "lon": -111.7174, "aqi": 37, "pm25": 37, "ozone": 27, "no2": 8, "co": 1, "category": "Good"}, {"city": "Fountain", "country": "United States of America", "lat": 38.6822, "lon": -104.7008, "aqi": 72, "pm25": 72, "ozone": 29, "no2": 3, "co": 1, "category": "Moderate"}, {"city": "Francisco Morato", "country": "Brazil", "lat": -23.2817, "lon": -46.7453, "aqi": 169, "pm25": 169, "ozone": 0, "no2": 21, "co": 7, "category": "Unhealthy"}, {"city": "Freiberg", "country": "Germany", "lat": 50.9109, "lon": 13.3388, "aqi": 36, "pm25": 36, "ozone": 25, "no2": 3, "co": 1, "category": "Good"}, {"city": "Front Royal", "country": "United States of America", "lat": 38.9182, "lon": -78.1944, "aqi": 46, "pm25": 46, "ozone": 37, "no2": 2, "co": 1, "category": "Good"}, {"city": "Fuchu", "country": "Japan", "lat": 34.5735, "lon": 133.2351, "aqi": 71, "pm25": 49, "ozone": 71, "no2": 3, "co": 1, "category": "Moderate"}, {"city": "Gaggenau", "country": "Germany", "lat": 48.8, "lon": 8.3333, "aqi": 29, "pm25": 26, "ozone": 29, "no2": 2, "co": 0, "category": "Good"}, {"city": "Gan Yavne", "country": "Israel", "lat": 31.7874, "lon": 34.7066, "aqi": 77, "pm25": 77, "ozone": 43, "no2": 6, "co": 1, "category": "Moderate"}, {"city": "Gauribidanur", "country": "India", "lat": 13.6107, "lon": 77.5174, "aqi": 48, "pm25": 48, "ozone": 24, "no2": 0, "co": 0, "category": "Good"}, {"city": "Gava", "country": "Spain", "lat": 41.306, "lon": 2.0012, "aqi": 57, "pm25": 57, "ozone": 19, "no2": 10, "co": 1, "category": "Moderate"}, {"city": "Gela", "country": "Italy", "lat": 37.0738, "lon": 14.2404, "aqi": 53, "pm25": 53, "ozone": 38, "no2": 2, "co": 1, "category": "Moderate"}, {"city": "Gennep", "country": "Netherlands", "lat": 51.6983, "lon": 5.9736, "aqi": 30, "pm25": 30, "ozone": 25, "no2": 3, "co": 0, "category": "Good"}, {"city": "Georgetown", "country": "Guyana", "lat": 6.8045, "lon": -58.1553, "aqi": 27, "pm25": 27, "ozone": 19, "no2": 0, "co": 0, "category": "Good"}, {"city": "Gera", "country": "Germany", "lat": 50.8803, "lon": 12.0819, "aqi": 30, "pm25": 30, "ozone": 28, "no2": 2, "co": 0, "category": "Good"}, {"city": "Gevrai", "country": "India", "lat": 19.2637, "lon": 75.7501, "aqi": 120, "pm25": 120, "ozone": 30, "no2": 0, "co": 1, "category": "Unhealthy for Sensitive Groups"}, {"city": "Lake Jackson", "country": "United States of America", "lat": 29.0339, "lon": -95.4344, "aqi": 25, "pm25": 25, "ozone": 24, "no2": 2, "co": 0, "category": "Good"}, {"city": "Lakeside", "country": "United States of America", "lat": 30.13, "lon": -81.7682, "aqi": 57, "pm25": 57, "ozone": 22, "no2": 14, "co": 2, "category": "Moderate"}, {"city": "Lam Luk Ka", "country": "Thailand", "lat": 13.9774, "lon": 100.7778, "aqi": 66, "pm25": 66, "ozone": 28, "no2": 1, "co": 1, "category": "Moderate"}, {"city": "Lar", "country": "Iran (Islamic Republic of)", "lat": 48.3404, "lon": 7.8689, "aqi": 105, "pm25": 105, "ozone": 49, "no2": 0, "co": 1, "category": "Unhealthy for Sensitive Groups"}, {"city": "Laranjeiras Do Sul", "country": "Brazil", "lat": -25.4078, "lon": -52.4161, "aqi": 12, "pm25": 11, "ozone": 12, "no2": 0, "co": 1, "category": "Good"}, {"city": "Lasa", "country": "China", "lat": 29.65, "lon": 91.1, "aqi": 25, "pm25": 12, "ozone": 25, "no2": 0, "co": 0, "category": "Good"}, {"city": "Lasalgaon", "country": "India", "lat": 20.1427, "lon": 74.2395, "aqi": 129, "pm25": 129, "ozone": 30, "no2": 0, "co": 0, "category": "Unhealthy for Sensitive Groups"}, {"city": "Le Port", "country": "France", "lat": -20.9375, "lon": 55.2942, "aqi": 42, "pm25": 42, "ozone": 28, "no2": 0, "co": 1, "category": "Good"}, {"city": "Lerida", "country": "Colombia", "lat": 4.8624, "lon": -74.9098, "aqi": 60, "pm25": 60, "ozone": 8, "no2": 4, "co": 2, "category": "Moderate"}, {"city": "Leusden", "country": "Netherlands", "lat": 52.1325, "lon": 5.4319, "aqi": 33, "pm25": 26, "ozone": 33, "no2": 1, "co": 0, "category": "Good"}, {"city": "Lewes", "country": "United Kingdom of Great Britain and Northern Ireland", "lat": 50.874, "lon": 0.0088, "aqi": 37, "pm25": 37, "ozone": 12, "no2": 13, "co": 1, "category": "Good"}, {"city": "Libourne", "country": "France", "lat": 44.9145, "lon": -0.2419, "aqi": 46, "pm25": 46, "ozone": 26, "no2": 2, "co": 1, "category": "Good"}, {"city": "Limbang", "country": "Malaysia", "lat": 4.7548, "lon": 115.0101, "aqi": 95, "pm25": 46, "ozone": 95, "no2": 0, "co": 9, "category": "Moderate"}, {"city": "Lishan", "country": "China", "lat": 34.378, "lon": 109.2089, "aqi": 192, "pm25": 124, "ozone": 192, "no2": 6, "co": 4, "category": "Unhealthy"}, {"city": "Lokeren", "country": "Belgium", "lat": 51.1036, "lon": 3.9934, "aqi": 31, "pm25": 31, "ozone": 31, "no2": 2, "co": 0, "category": "Good"}, {"city": "Loon Op Zand", "country": "Netherlands", "lat": 51.6275, "lon": 5.075, "aqi": 32, "pm25": 32, "ozone": 27, "no2": 3, "co": 0, "category": "Good"}, {"city": "Loubomo", "country": "Congo", "lat": -4.1983, "lon": 12.6666, "aqi": 100, "pm25": 100, "ozone": 16, "no2": 0, "co": 1, "category": "Unhealthy for Sensitive Groups"}, {"city": "Louga", "country": "Senegal", "lat": 15.6187, "lon": -16.2244, "aqi": 176, "pm25": 176, "ozone": 21, "no2": 3, "co": 2, "category": "Unhealthy"}, {"city": "Lubin", "country": "Poland", "lat": 51.4009, "lon": 16.2015, "aqi": 35, "pm25": 35, "ozone": 20, "no2": 3, "co": 1, "category": "Good"}, {"city": "Lublin", "country": "Poland", "lat": 51.25, "lon": 22.5667, "aqi": 32, "pm25": 28, "ozone": 32, "no2": 1, "co": 1, "category": "Good"}, {"city": "Lucena", "country": "Philippines", "lat": 13.9314, "lon": 121.6172, "aqi": 32, "pm25": 32, "ozone": 29, "no2": 0, "co": 1, "category": "Good"}, {"city": "Lunavada", "country": "India", "lat": 23.1284, "lon": 73.6104, "aqi": 164, "pm25": 164, "ozone": 35, "no2": 0, "co": 1, "category": "Unhealthy"}, {"city": "Lvov", "country": "Ukraine", "lat": 49.8383, "lon": 24.0232, "aqi": 61, "pm25": 61, "ozone": 29, "no2": 1, "co": 1, "category": "Moderate"}, {"city": "Macapa", "country": "Brazil", "lat": 0.0389, "lon": -51.0664, "aqi": 16, "pm25": 16, "ozone": 12, "no2": 0, "co": 1, "category": "Good"}, {"city": "Mafeteng", "country": "Lesotho", "lat": -29.823, "lon": 27.2374, "aqi": 117, "pm25": 117, "ozone": 14, "no2": 7, "co": 4, "category": "Unhealthy for Sensitive Groups"}, {"city": "Magomeni", "country": "United Republic of Tanzania", "lat": -6.8, "lon": 39.25, "aqi": 50, "pm25": 50, "ozone": 23, "no2": 0, "co": 0, "category": "Good"}, {"city": "Mahbubabad", "country": "India", "lat": 17.5973, "lon": 80.0021, "aqi": 119, "pm25": 119, "ozone": 35, "no2": 0, "co": 1, "category": "Unhealthy for Sensitive Groups"}, {"city": "Mahoba", "country": "India", "lat": 25.2905, "lon": 79.8753, "aqi": 180, "pm25": 180, "ozone": 45, "no2": 0, "co": 1, "category": "Unhealthy"}, {"city": "Maihar", "country": "India", "lat": 24.2659, "lon": 80.7606, "aqi": 171, "pm25": 171, "ozone": 36, "no2": 0, "co": 1, "category": "Unhealthy"}, {"city": "Mainpuri", "country": "India", "lat": 27.2286, "lon": 79.0288, "aqi": 434, "pm25": 362, "ozone": 53, "no2": 1, "co": 1, "category": "Hazardous"}, {"city": "Maitland", "country": "United States of America", "lat": 28.6278, "lon": -81.3631, "aqi": 53, "pm25": 53, "ozone": 18, "no2": 14, "co": 1, "category": "Moderate"}, {"city": "Makiyivka", "country": "Ukraine", "lat": 48.0478, "lon": 37.9258, "aqi": 50, "pm25": 50, "ozone": 24, "no2": 11, "co": 1, "category": "Good"}, {"city": "Malakoff", "country": "France", "lat": 48.82, "lon": 2.3, "aqi": 40, "pm25": 40, "ozone": 26, "no2": 3, "co": 1, "category": "Good"}, {"city": "Malanville", "country": "Benin", "lat": 11.8682, "lon": 3.3833, "aqi": 34, "pm25": 34, "ozone": 18, "no2": 1, "co": 1, "category": "Good"}, {"city": "Malard", "country": "Iran (Islamic Republic of)", "lat": 35.6659, "lon": 50.9767, "aqi": 172, "pm25": 145, "ozone": 172, "no2": 5, "co": 3, "category": "Unhealthy"}, {"city": "Malnate", "country": "Italy", "lat": 45.7938, "lon": 8.881, "aqi": 69, "pm25": 69, "ozone": 22, "no2": 6, "co": 1, "category": "Moderate"}, {"city": "Manono", "country": "Democratic Republic of the Congo", "lat": -7.2986, "lon": 27.3989, "aqi": 74, "pm25": 74, "ozone": 23, "no2": 1, "co": 2, "category": "Moderate"}, {"city": "Maracaibo", "country": "Venezuela (Bolivarian Republic of)", "lat": 10.6423, "lon": -71.6109, "aqi": 118, "pm25": 118, "ozone": 17, "no2": 4, "co": 1, "category": "Unhealthy for Sensitive Groups"}, {"city": "Marano Di Napoli", "country": "Italy", "lat": 40.8971, "lon": 14.1882, "aqi": 52, "pm25": 36, "ozone": 52, "no2": 1, "co": 1, "category": "Moderate"}, {"city": "Gunnaur", "country": "India", "lat": 28.24, "lon": 78.4399, "aqi": 500, "pm25": 500, "ozone": 73, "no2": 1, "co": 1, "category": "Hazardous"}, {"city": "Hagen", "country": "Germany", "lat": 51.3608, "lon": 7.4717, "aqi": 30, "pm25": 25, "ozone": 30, "no2": 1, "co": 0, "category": "Good"}, {"city": "Halluin", "country": "France", "lat": 50.7863, "lon": 3.1261, "aqi": 35, "pm25": 35, "ozone": 28, "no2": 2, "co": 0, "category": "Good"}, {"city": "Hamburg", "country": "Germany", "lat": 53.5507, "lon": 9.993, "aqi": 34, "pm25": 34, "ozone": 28, "no2": 2, "co": 0, "category": "Good"}, {"city": "Hanahan", "country": "United States of America", "lat": 32.9185, "lon": -80.022, "aqi": 73, "pm25": 73, "ozone": 35, "no2": 8, "co": 2, "category": "Moderate"}, {"city": "Hanamaki", "country": "Japan", "lat": 39.3833, "lon": 141.1167, "aqi": 38, "pm25": 20, "ozone": 38, "no2": 0, "co": 1, "category": "Good"}, {"city": "Hangal", "country": "India", "lat": 14.7646, "lon": 75.1246, "aqi": 70, "pm25": 70, "ozone": 22, "no2": 0, "co": 0, "category": "Moderate"}, {"city": "Harmanli", "country": "Bulgaria", "lat": 41.9323, "lon": 25.9017, "aqi": 40, "pm25": 24, "ozone": 40, "no2": 1, "co": 1, "category": "Good"}, {"city": "Harunabad", "country": "Pakistan", "lat": 29.6121, "lon": 73.138, "aqi": 500, "pm25": 443, "ozone": 43, "no2": 0, "co": 1, "category": "Hazardous"}, {"city": "Hattingen", "country": "Germany", "lat": 51.3989, "lon": 7.1856, "aqi": 28, "pm25": 28, "ozone": 27, "no2": 2, "co": 0, "category": "Good"}, {"city": "Hauppauge", "country": "United States of America", "lat": 40.8257, "lon": -73.2026, "aqi": 52, "pm25": 52, "ozone": 27, "no2": 12, "co": 1, "category": "Moderate"}, {"city": "Hayward", "country": "United States of America", "lat": 37.6688, "lon": -122.0808, "aqi": 70, "pm25": 70, "ozone": 20, "no2": 20, "co": 2, "category": "Moderate"}, {"city": "Heinola", "country": "Finland", "lat": 61.2056, "lon": 26.0381, "aqi": 33, "pm25": 5, "ozone": 33, "no2": 0, "co": 0, "category": "Good"}, {"city": "Hekinan", "country": "Japan", "lat": 34.8833, "lon": 136.9833, "aqi": 59, "pm25": 23, "ozone": 59, "no2": 1, "co": 1, "category": "Moderate"}, {"city": "Hengyang", "country": "China", "lat": 26.8895, "lon": 112.6189, "aqi": 169, "pm25": 150, "ozone": 169, "no2": 3, "co": 4, "category": "Unhealthy"}, {"city": "Hirata", "country": "Japan", "lat": 35.4333, "lon": 132.8167, "aqi": 45, "pm25": 16, "ozone": 45, "no2": 0, "co": 1, "category": "Good"}, {"city": "Hobara", "country": "Japan", "lat": 37.8167, "lon": 140.55, "aqi": 44, "pm25": 22, "ozone": 44, "no2": 0, "co": 1, "category": "Good"}, {"city": "Hoboken", "country": "United States of America", "lat": 40.744, "lon": -74.0324, "aqi": 61, "pm25": 61, "ozone": 27, "no2": 11, "co": 1, "category": "Moderate"}, {"city": "Hofu", "country": "Japan", "lat": 34.05, "lon": 131.5667, "aqi": 44, "pm25": 32, "ozone": 44, "no2": 0, "co": 1, "category": "Good"}, {"city": "Honiara", "country": "Solomon Islands", "lat": -9.4333, "lon": 159.95, "aqi": 18, "pm25": 6, "ozone": 18, "no2": 0, "co": 0, "category": "Good"}, {"city": "Honnali", "country": "India", "lat": 14.2398, "lon": 75.6451, "aqi": 65, "pm25": 65, "ozone": 22, "no2": 0, "co": 0, "category": "Moderate"}, {"city": "Hrazdan", "country": "Armenia", "lat": 40.5169, "lon": 44.7559, "aqi": 31, "pm25": 30, "ozone": 31, "no2": 0, "co": 0, "category": "Good"}, {"city": "Hsinchu", "country": "China", "lat": 24.8036, "lon": 120.9686, "aqi": 138, "pm25": 112, "ozone": 138, "no2": 2, "co": 3, "category": "Unhealthy for Sensitive Groups"}, {"city": "Huaura", "country": "Peru", "lat": -11.07, "lon": -77.5994, "aqi": 39, "pm25": 39, "ozone": 19, "no2": 1, "co": 1, "category": "Good"}, {"city": "Hwange", "country": "Zimbabwe", "lat": -18.3645, "lon": 26.4988, "aqi": 44, "pm25": 44, "ozone": 17, "no2": 0, "co": 0, "category": "Good"}, {"city": "Ichihara", "country": "Japan", "lat": 35.5167, "lon": 140.0833, "aqi": 74, "pm25": 35, "ozone": 74, "no2": 1, "co": 1, "category": "Moderate"}, {"city": "Ikom", "country": "Nigeria", "lat": 5.9667, "lon": 8.7063, "aqi": 125, "pm25": 125, "ozone": 16, "no2": 2, "co": 5, "category": "Unhealthy for Sensitive Groups"}, {"city": "Khed", "country": "India", "lat": 17.7189, "lon": 73.3969, "aqi": 95, "pm25": 95, "ozone": 22, "no2": 0, "co": 0, "category": "Moderate"}, {"city": "Khetri", "country": "India", "lat": 28.0007, "lon": 75.7864, "aqi": 500, "pm25": 376, "ozone": 40, "no2": 0, "co": 1, "category": "Hazardous"}, {"city": "Khimki", "country": "Russian Federation", "lat": 55.9001, "lon": 37.4285, "aqi": 40, "pm25": 40, "ozone": 30, "no2": 8, "co": 1, "category": "Good"}, {"city": "Khopoli", "country": "India", "lat": 18.7856, "lon": 73.3459, "aqi": 108, "pm25": 108, "ozone": 23, "no2": 0, "co": 0, "category": "Unhealthy for Sensitive Groups"}, {"city": "Kibara", "country": "United Republic of Tanzania", "lat": -2.15, "lon": 33.45, "aqi": 20, "pm25": 20, "ozone": 14, "no2": 0, "co": 0, "category": "Good"}, {"city": "Kilis", "country": "Turkey", "lat": 36.7161, "lon": 37.115, "aqi": 64, "pm25": 64, "ozone": 41, "no2": 0, "co": 1, "category": "Moderate"}, {"city": "Kiliya", "country": "Ukraine", "lat": 45.4445, "lon": 29.264, "aqi": 37, "pm25": 30, "ozone": 37, "no2": 0, "co": 1, "category": "Good"}, {"city": "Killeen", "country": "United States of America", "lat": 31.1171, "lon": -97.7278, "aqi": 40, "pm25": 40, "ozone": 21, "no2": 1, "co": 0, "category": "Good"}, {"city": "Kingston Upon Hull", "country": "", "lat": 53.7446, "lon": -0.3352, "aqi": 33, "pm25": 33, "ozone": 17, "no2": 8, "co": 1, "category": "Good"}, {"city": "Klosterneuburg", "country": "Austria", "lat": 48.3052, "lon": 16.3252, "aqi": 59, "pm25": 59, "ozone": 30, "no2": 3, "co": 1, "category": "Moderate"}, {"city": "Kokopo", "country": "Papua New Guinea", "lat": -4.3432, "lon": 152.2687, "aqi": 104, "pm25": 104, "ozone": 22, "no2": 0, "co": 0, "category": "Unhealthy for Sensitive Groups"}, {"city": "Kola", "country": "Russian Federation", "lat": 52.2002, "lon": 18.6386, "aqi": 30, "pm25": 10, "ozone": 30, "no2": 0, "co": 1, "category": "Good"}, {"city": "Kolin", "country": "Czechia", "lat": 50.0281, "lon": 15.1998, "aqi": 50, "pm25": 50, "ozone": 23, "no2": 4, "co": 1, "category": "Good"}, {"city": "Kolo", "country": "Poland", "lat": 52.2002, "lon": 18.6386, "aqi": 32, "pm25": 29, "ozone": 32, "no2": 1, "co": 1, "category": "Good"}, {"city": "Konskie", "country": "Poland", "lat": 51.1917, "lon": 20.4061, "aqi": 46, "pm25": 46, "ozone": 21, "no2": 4, "co": 1, "category": "Good"}, {"city": "Kot Radha Kishan", "country": "Pakistan", "lat": 31.1707, "lon": 74.1013, "aqi": 230, "pm25": 230, "ozone": 130, "no2": 9, "co": 5, "category": "Very Unhealthy"}, {"city": "Koumra", "country": "Chad", "lat": 8.9159, "lon": 17.5505, "aqi": 59, "pm25": 59, "ozone": 6, "no2": 0, "co": 2, "category": "Moderate"}, {"city": "Koyilandi", "country": "India", "lat": 11.4381, "lon": 75.6931, "aqi": 69, "pm25": 69, "ozone": 26, "no2": 0, "co": 0, "category": "Moderate"}, {"city": "Kozyatyn", "country": "Ukraine", "lat": 49.7164, "lon": 28.8386, "aqi": 78, "pm25": 78, "ozone": 38, "no2": 0, "co": 1, "category": "Moderate"}, {"city": "Krasnovishersk", "country": "Russian Federation", "lat": 60.4073, "lon": 57.0829, "aqi": 29, "pm25": 29, "ozone": 28, "no2": 0, "co": 1, "category": "Good"}, {"city": "Kronach", "country": "Germany", "lat": 50.2396, "lon": 11.3331, "aqi": 36, "pm25": 36, "ozone": 26, "no2": 2, "co": 1, "category": "Good"}, {"city": "Kronberg", "country": "Germany", "lat": 50.181, "lon": 8.513, "aqi": 30, "pm25": 27, "ozone": 30, "no2": 1, "co": 0, "category": "Good"}, {"city": "Kryvyy Rih", "country": "Ukraine", "lat": 47.9057, "lon": 33.394, "aqi": 52, "pm25": 52, "ozone": 36, "no2": 1, "co": 1, "category": "Moderate"}, {"city": "Kudligi", "country": "India", "lat": 14.905, "lon": 76.3853, "aqi": 74, "pm25": 74, "ozone": 24, "no2": 0, "co": 0, "category": "Moderate"}, {"city": "Kulebaki", "country": "Russian Federation", "lat": 55.4133, "lon": 42.5325, "aqi": 48, "pm25": 48, "ozone": 33, "no2": 1, "co": 1, "category": "Good"}, {"city": "Kushiro", "country": "Japan", "lat": 42.975, "lon": 144.3747, "aqi": 33, "pm25": 9, "ozone": 33, "no2": 0, "co": 1, "category": "Good"}, {"city": "Kyaiklat", "country": "Myanmar", "lat": 16.445, "lon": 95.7237, "aqi": 61, "pm25": 61, "ozone": 21, "no2": 0, "co": 0, "category": "Moderate"}, {"city": "La Barca", "country": "Mexico", "lat": 20.2899, "lon": -102.542, "aqi": 37, "pm25": 37, "ozone": 8, "no2": 3, "co": 1, "category": "Good"}, {"city": "La Crau", "country": "France", "lat": 43.1496, "lon": 6.074, "aqi": 60, "pm25": 60, "ozone": 30, "no2": 6, "co": 1, "category": "Moderate"}, {"city": "La Presa", "country": "United States of America", "lat": 32.7081, "lon": -116.9972, "aqi": 58, "pm25": 58, "ozone": 14, "no2": 19, "co": 2, "category": "Moderate"}, {"city": "Lagoa Da Canoa", "country": "Brazil", "lat": -9.8297, "lon": -36.7378, "aqi": 34, "pm25": 34, "ozone": 15, "no2": 2, "co": 0, "category": "Good"}, {"city": "Imbituba", "country": "Brazil", "lat": -28.24, "lon": -48.6703, "aqi": 31, "pm25": 31, "ozone": 15, "no2": 1, "co": 1, "category": "Good"}, {"city": "Imbituva", "country": "Brazil", "lat": -25.23, "lon": -50.6044, "aqi": 24, "pm25": 24, "ozone": 8, "no2": 0, "co": 1, "category": "Good"}, {"city": "Inagi", "country": "Japan", "lat": 35.633, "lon": 139.4997, "aqi": 78, "pm25": 51, "ozone": 78, "no2": 3, "co": 1, "category": "Moderate"}, {"city": "Inca", "country": "Spain", "lat": 39.7211, "lon": 2.9109, "aqi": 43, "pm25": 30, "ozone": 43, "no2": 0, "co": 1, "category": "Good"}, {"city": "Indergarh", "country": "India", "lat": 26.9352, "lon": 79.6712, "aqi": 390, "pm25": 335, "ozone": 54, "no2": 1, "co": 1, "category": "Hazardous"}, {"city": "Indore", "country": "India", "lat": 22.7179, "lon": 75.8333, "aqi": 150, "pm25": 150, "ozone": 30, "no2": 0, "co": 1, "category": "Unhealthy"}, {"city": "Inisa", "country": "Nigeria", "lat": 7.8486, "lon": 4.3298, "aqi": 159, "pm25": 159, "ozone": 16, "no2": 5, "co": 6, "category": "Unhealthy"}, {"city": "Ishigaki", "country": "Japan", "lat": 24.3448, "lon": 124.1572, "aqi": 116, "pm25": 64, "ozone": 116, "no2": 0, "co": 2, "category": "Unhealthy for Sensitive Groups"}, {"city": "Issia", "country": "Côte d'Ivoire", "lat": 6.4922, "lon": -6.5856, "aqi": 84, "pm25": 84, "ozone": 10, "no2": 1, "co": 2, "category": "Moderate"}, {"city": "Izyum", "country": "Ukraine", "lat": 49.207, "lon": 37.2768, "aqi": 51, "pm25": 51, "ozone": 34, "no2": 1, "co": 1, "category": "Moderate"}, {"city": "Jaen", "country": "Spain", "lat": 37.7692, "lon": -3.7903, "aqi": 36, "pm25": 36, "ozone": 17, "no2": 3, "co": 1, "category": "Good"}, {"city": "Jagtial", "country": "India", "lat": 18.7947, "lon": 78.9166, "aqi": 139, "pm25": 139, "ozone": 31, "no2": 0, "co": 1, "category": "Unhealthy for Sensitive Groups"}, {"city": "Jamadoba", "country": "India", "lat": 23.7167, "lon": 86.4, "aqi": 174, "pm25": 174, "ozone": 59, "no2": 1, "co": 1, "category": "Unhealthy"}, {"city": "Jandiala", "country": "India", "lat": 31.562, "lon": 75.0277, "aqi": 156, "pm25": 156, "ozone": 124, "no2": 10, "co": 5, "category": "Unhealthy"}, {"city": "Jijiang", "country": "China", "lat": 29.2899, "lon": 106.25, "aqi": 162, "pm25": 162, "ozone": 79, "no2": 25, "co": 10, "category": "Unhealthy"}, {"city": "Jintur", "country": "India", "lat": 19.6119, "lon": 76.6874, "aqi": 130, "pm25": 130, "ozone": 31, "no2": 0, "co": 1, "category": "Unhealthy for Sensitive Groups"}, {"city": "Jinxi", "country": "China", "lat": 40.7643, "lon": 120.8533, "aqi": 93, "pm25": 93, "ozone": 51, "no2": 2, "co": 2, "category": "Moderate"}, {"city": "Juchen", "country": "Germany", "lat": 51.1, "lon": 6.5, "aqi": 34, "pm25": 34, "ozone": 23, "no2": 3, "co": 1, "category": "Good"}, {"city": "Kabanga", "country": "United Republic of Tanzania", "lat": -2.6386, "lon": 30.4678, "aqi": 171, "pm25": 171, "ozone": 10, "no2": 3, "co": 6, "category": "Unhealthy"}, {"city": "Kaitong", "country": "China", "lat": 44.8091, "lon": 123.0811, "aqi": 95, "pm25": 95, "ozone": 79, "no2": 0, "co": 2, "category": "Moderate"}, {"city": "Kajaani", "country": "Finland", "lat": 64.2273, "lon": 27.7285, "aqi": 32, "pm25": 24, "ozone": 32, "no2": 0, "co": 1, "category": "Good"}, {"city": "Kakrala", "country": "India", "lat": 27.8927, "lon": 79.1945, "aqi": 500, "pm25": 478, "ozone": 95, "no2": 2, "co": 2, "category": "Hazardous"}, {"city": "Kalynivka", "country": "Ukraine", "lat": 49.4613, "lon": 28.5154, "aqi": 78, "pm25": 78, "ozone": 36, "no2": 1, "co": 1, "category": "Moderate"}, {"city": "Kampot", "country": "Cambodia", "lat": 10.6104, "lon": 104.1814, "aqi": 59, "pm25": 59, "ozone": 27, "no2": 0, "co": 1, "category": "Moderate"}, {"city": "Kamra", "country": "Pakistan", "lat": 33.747, "lon": 73.5123, "aqi": 135, "pm25": 86, "ozone": 135, "no2": 1, "co": 2, "category": "Unhealthy for Sensitive Groups"}, {"city": "Kandhla", "country": "India", "lat": 29.321, "lon": 77.271, "aqi": 500, "pm25": 500, "ozone": 53, "no2": 8, "co": 3, "category": "Hazardous"}, {"city": "Kangasala", "country": "Finland", "lat": 61.4638, "lon": 24.076, "aqi": 30, "pm25": 14, "ozone": 30, "no2": 2, "co": 1, "category": "Good"}, {"city": "Kargil", "country": "India", "lat": 34.5577, "lon": 76.1262, "aqi": 23, "pm25": 23, "ozone": 21, "no2": 0, "co": 1, "category": "Good"}, {"city": "Kartarpur", "country": "India", "lat": 31.4427, "lon": 75.4985, "aqi": 168, "pm25": 146, "ozone": 168, "no2": 2, "co": 3, "category": "Unhealthy"}, {"city": "Katol", "country": "India", "lat": 21.2739, "lon": 78.5858, "aqi": 144, "pm25": 144, "ozone": 36, "no2": 0, "co": 1, "category": "Unhealthy for Sensitive Groups"}, {"city": "Kawaguchi", "country": "Japan", "lat": 35.8052, "lon": 139.7107, "aqi": 75, "pm25": 34, "ozone": 75, "no2": 1, "co": 1, "category": "Moderate"}, {"city": "Kearns", "country": "United States of America", "lat": 40.66, "lon": -111.9963, "aqi": 54, "pm25": 54, "ozone": 6, "no2": 14, "co": 1, "category": "Moderate"}, {"city": "Kecskemet", "country": "Hungary", "lat": 46.9062, "lon": 19.6913, "aqi": 65, "pm25": 65, "ozone": 27, "no2": 2, "co": 1, "category": "Moderate"}, {"city": "Kemalpasa", "country": "Turkey", "lat": 38.4262, "lon": 27.4173, "aqi": 37, "pm25": 37, "ozone": 31, "no2": 5, "co": 1, "category": "Good"}, {"city": "Kerrville", "country": "United States of America", "lat": 30.0474, "lon": -99.1403, "aqi": 36, "pm25": 36, "ozone": 20, "no2": 1, "co": 0, "category": "Good"}, {"city": "Kettering", "country": "United States of America", "lat": 39.6895, "lon": -84.1688, "aqi": 53, "pm25": 53, "ozone": 31, "no2": 6, "co": 1, "category": "Moderate"}, {"city": "Khammam", "country": "India", "lat": 17.2477, "lon": 80.1437, "aqi": 112, "pm25": 112, "ozone": 29, "no2": 2, "co": 1, "category": "Unhealthy for Sensitive Groups"}, {"city": "Khandwa", "country": "India", "lat": 21.8243, "lon": 76.3509, "aqi": 130, "pm25": 130, "ozone": 31, "no2": 0, "co": 0, "category": "Unhealthy for Sensitive Groups"}, {"city": "Marseille", "country": "France", "lat": 43.297, "lon": 5.3811, "aqi": 59, "pm25": 59, "ozone": 37, "no2": 6, "co": 1, "category": "Moderate"}, {"city": "Masindi", "country": "Uganda", "lat": 1.6744, "lon": 31.715, "aqi": 62, "pm25": 62, "ozone": 17, "no2": 0, "co": 2, "category": "Moderate"}, {"city": "Masjid Tanah", "country": "Malaysia", "lat": 2.35, "lon": 102.1167, "aqi": 79, "pm25": 79, "ozone": 36, "no2": 0, "co": 2, "category": "Moderate"}, {"city": "Massakory", "country": "Chad", "lat": 12.9981, "lon": 15.7319, "aqi": 65, "pm25": 65, "ozone": 23, "no2": 1, "co": 2, "category": "Moderate"}, {"city": "Matai", "country": "United Republic of Tanzania", "lat": -8.3, "lon": 31.5167, "aqi": 19, "pm25": 19, "ozone": 19, "no2": 0, "co": 0, "category": "Good"}, {"city": "Matir", "country": "Tunisia", "lat": 37.0404, "lon": 9.6656, "aqi": 57, "pm25": 53, "ozone": 57, "no2": 1, "co": 1, "category": "Moderate"}, {"city": "Medellin", "country": "Philippines", "lat": 6.245, "lon": -75.5715, "aqi": 78, "pm25": 78, "ozone": 31, "no2": 0, "co": 1, "category": "Moderate"}, {"city": "Media Luna", "country": "Cuba", "lat": 20.143, "lon": -77.4353, "aqi": 56, "pm25": 56, "ozone": 25, "no2": 1, "co": 1, "category": "Moderate"}, {"city": "Mekhe", "country": "Senegal", "lat": 15.1097, "lon": -16.6218, "aqi": 171, "pm25": 171, "ozone": 20, "no2": 3, "co": 2, "category": "Unhealthy"}, {"city": "Melgar", "country": "Colombia", "lat": 4.2047, "lon": -74.6407, "aqi": 121, "pm25": 121, "ozone": 7, "no2": 8, "co": 4, "category": "Unhealthy for Sensitive Groups"}, {"city": "Mercedes", "country": "Argentina", "lat": -34.6507, "lon": -59.4314, "aqi": 14, "pm25": 3, "ozone": 14, "no2": 0, "co": 1, "category": "Good"}, {"city": "Mezokovesd", "country": "Hungary", "lat": 47.8167, "lon": 20.5833, "aqi": 67, "pm25": 67, "ozone": 36, "no2": 2, "co": 1, "category": "Moderate"}, {"city": "Middelharnis", "country": "Netherlands", "lat": 51.7575, "lon": 4.1653, "aqi": 34, "pm25": 32, "ozone": 34, "no2": 2, "co": 0, "category": "Good"}, {"city": "Midyat", "country": "Turkey", "lat": 37.4191, "lon": 41.3391, "aqi": 72, "pm25": 72, "ozone": 42, "no2": 1, "co": 1, "category": "Moderate"}, {"city": "Miguel Alves", "country": "Brazil", "lat": -4.1656, "lon": -42.8953, "aqi": 47, "pm25": 47, "ozone": 7, "no2": 1, "co": 1, "category": "Good"}, {"city": "Minas", "country": "Uruguay", "lat": -34.3759, "lon": -55.2377, "aqi": 22, "pm25": 22, "ozone": 19, "no2": 0, "co": 0, "category": "Good"}, {"city": "Misrikh", "country": "India", "lat": 27.4314, "lon": 80.5316, "aqi": 178, "pm25": 170, "ozone": 178, "no2": 2, "co": 4, "category": "Unhealthy"}, {"city": "Moga", "country": "India", "lat": 30.8138, "lon": 75.1688, "aqi": 159, "pm25": 159, "ozone": 134, "no2": 1, "co": 2, "category": "Unhealthy"}, {"city": "Mogliano Veneto", "country": "Italy", "lat": 45.5559, "lon": 12.2429, "aqi": 89, "pm25": 89, "ozone": 33, "no2": 5, "co": 2, "category": "Moderate"}, {"city": "Mojoagung", "country": "Indonesia", "lat": -7.5667, "lon": 112.35, "aqi": 155, "pm25": 155, "ozone": 91, "no2": 2, "co": 3, "category": "Unhealthy"}, {"city": "Mombetsu", "country": "Japan", "lat": 44.3525, "lon": 143.3525, "aqi": 36, "pm25": 28, "ozone": 36, "no2": 0, "co": 1, "category": "Good"}, {"city": "Montalban", "country": "Philippines", "lat": 14.7601, "lon": 121.1999, "aqi": 70, "pm25": 70, "ozone": 23, "no2": 2, "co": 1, "category": "Moderate"}, {"city": "Montauban", "country": "France", "lat": 44.0176, "lon": 1.3542, "aqi": 32, "pm25": 32, "ozone": 32, "no2": 2, "co": 1, "category": "Good"}, {"city": "Mor", "country": "Hungary", "lat": -23.5963, "lon": -46.708, "aqi": 61, "pm25": 61, "ozone": 39, "no2": 1, "co": 1, "category": "Moderate"}, {"city": "Morrelganj", "country": "Bangladesh", "lat": 22.4557, "lon": 89.8558, "aqi": 142, "pm25": 142, "ozone": 48, "no2": 2, "co": 3, "category": "Unhealthy for Sensitive Groups"}, {"city": "Mortsel", "country": "Belgium", "lat": 51.167, "lon": 4.4513, "aqi": 40, "pm25": 40, "ozone": 29, "no2": 3, "co": 1, "category": "Good"}, {"city": "Moscow", "country": "United States of America", "lat": 46.7324, "lon": -117.0002, "aqi": 30, "pm25": 30, "ozone": 19, "no2": 4, "co": 1, "category": "Good"}, {"city": "Mudhol", "country": "India", "lat": 16.3335, "lon": 75.2831, "aqi": 73, "pm25": 73, "ozone": 24, "no2": 0, "co": 0, "category": "Moderate"}, {"city": "Muggio", "country": "Italy", "lat": 45.5888, "lon": 9.2278, "aqi": 104, "pm25": 104, "ozone": 34, "no2": 6, "co": 1, "category": "Unhealthy for Sensitive Groups"}, {"city": "Myslowice", "country": "Poland", "lat": 50.2075, "lon": 19.1667, "aqi": 106, "pm25": 106, "ozone": 28, "no2": 8, "co": 2, "category": "Unhealthy for Sensitive Groups"}, {"city": "Nandurbar", "country": "India", "lat": 21.3667, "lon": 74.2405, "aqi": 140, "pm25": 140, "ozone": 29, "no2": 0, "co": 0, "category": "Unhealthy for Sensitive Groups"}, {"city": "Nangloi Jat", "country": "India", "lat": 28.6796, "lon": 77.068, "aqi": 334, "pm25": 326, "ozone": 113, "no2": 3, "co": 3, "category": "Hazardous"}, {"city": "Naranjos", "country": "Mexico", "lat": 21.3509, "lon": -97.6866, "aqi": 92, "pm25": 92, "ozone": 34, "no2": 1, "co": 2, "category": "Moderate"}, {"city": "Naravarikuppam", "country": "India", "lat": 13.1913, "lon": 80.1847, "aqi": 118, "pm25": 118, "ozone": 27, "no2": 2, "co": 2, "category": "Unhealthy for Sensitive Groups"}, {"city": "Nardo", "country": "Italy", "lat": 40.1795, "lon": 18.0317, "aqi": 54, "pm25": 18, "ozone": 54, "no2": 2, "co": 1, "category": "Moderate"}, {"city": "Narowal", "country": "Pakistan", "lat": 32.102, "lon": 74.873, "aqi": 164, "pm25": 138, "ozone": 164, "no2": 1, "co": 3, "category": "Unhealthy"}, {"city": "Nawa", "country": "India", "lat": 27.0195, "lon": 75.0023, "aqi": 195, "pm25": 195, "ozone": 36, "no2": 0, "co": 1, "category": "Unhealthy"}, {"city": "Neustadt", "country": "Germany", "lat": 49.3501, "lon": 8.1389, "aqi": 33, "pm25": 32, "ozone": 33, "no2": 0, "co": 0, "category": "Good"}, {"city": "New Lenox", "country": "United States of America", "lat": 41.512, "lon": -87.9656, "aqi": 54, "pm25": 54, "ozone": 30, "no2": 11, "co": 2, "category": "Moderate"}, {"city": "Newburn", "country": "United Kingdom of Great Britain and Northern Ireland", "lat": 54.9876, "lon": -1.7442, "aqi": 31, "pm25": 21, "ozone": 31, "no2": 2, "co": 0, "category": "Good"}, {"city": "Newbury", "country": "United Kingdom of Great Britain and Northern Ireland", "lat": 51.4015, "lon": -1.3247, "aqi": 50, "pm25": 50, "ozone": 22, "no2": 7, "co": 1, "category": "Good"}, {"city": "Nisshin", "country": "Japan", "lat": 35.1368, "lon": 137.0524, "aqi": 44, "pm25": 16, "ozone": 44, "no2": 1, "co": 1, "category": "Good"}, {"city": "Kharhial", "country": "India", "lat": 20.2885, "lon": 82.7606, "aqi": 161, "pm25": 161, "ozone": 32, "no2": 1, "co": 1, "category": "Unhealthy"}, {"city": "Khategaon", "country": "India", "lat": 22.5957, "lon": 76.9133, "aqi": 157, "pm25": 157, "ozone": 36, "no2": 0, "co": 1, "category": "Unhealthy"}, {"city": "Kheda", "country": "India", "lat": 22.7522, "lon": 72.6853, "aqi": 158, "pm25": 158, "ozone": 38, "no2": 0, "co": 1, "category": "Unhealthy"}, {"city": "Kinanah", "country": "Sudan", "lat": 14.0361, "lon": 33.1712, "aqi": 54, "pm25": 54, "ozone": 21, "no2": 0, "co": 1, "category": "Moderate"}, {"city": "Kingstown", "country": "", "lat": 53.294, "lon": -6.1359, "aqi": 163, "pm25": 163, "ozone": 25, "no2": 0, "co": 0, "category": "Unhealthy"}, {"city": "Kinwat", "country": "India", "lat": 19.6256, "lon": 78.1987, "aqi": 151, "pm25": 151, "ozone": 33, "no2": 0, "co": 1, "category": "Unhealthy"}, {"city": "Kishangarh", "country": "India", "lat": 26.5901, "lon": 74.854, "aqi": 409, "pm25": 356, "ozone": 44, "no2": 0, "co": 1, "category": "Hazardous"}, {"city": "Kiskunfelegyhaza", "country": "Hungary", "lat": 46.7121, "lon": 19.8446, "aqi": 71, "pm25": 71, "ozone": 40, "no2": 1, "co": 1, "category": "Moderate"}, {"city": "Klamath Falls", "country": "United States of America", "lat": 42.2249, "lon": -121.7817, "aqi": 40, "pm25": 40, "ozone": 7, "no2": 6, "co": 1, "category": "Good"}, {"city": "Kodarma", "country": "India", "lat": 24.4349, "lon": 85.5295, "aqi": 186, "pm25": 186, "ozone": 108, "no2": 1, "co": 2, "category": "Unhealthy"}, {"city": "Kohat", "country": "Pakistan", "lat": 33.582, "lon": 71.4493, "aqi": 101, "pm25": 101, "ozone": 62, "no2": 0, "co": 1, "category": "Unhealthy for Sensitive Groups"}, {"city": "Koppies", "country": "South Africa", "lat": -27.2418, "lon": 27.5742, "aqi": 191, "pm25": 191, "ozone": 9, "no2": 18, "co": 7, "category": "Unhealthy"}, {"city": "Korla", "country": "China", "lat": 41.7606, "lon": 86.1523, "aqi": 160, "pm25": 160, "ozone": 45, "no2": 0, "co": 1, "category": "Unhealthy"}, {"city": "Korostyshiv", "country": "Ukraine", "lat": 50.3172, "lon": 29.0563, "aqi": 89, "pm25": 89, "ozone": 39, "no2": 0, "co": 1, "category": "Moderate"}, {"city": "Kouroussa", "country": "Guinea", "lat": 10.65, "lon": -9.8833, "aqi": 56, "pm25": 56, "ozone": 13, "no2": 0, "co": 1, "category": "Moderate"}, {"city": "Littleton", "country": "United States of America", "lat": 39.6133, "lon": -105.0166, "aqi": 74, "pm25": 74, "ozone": 8, "no2": 13, "co": 1, "category": "Moderate"}, {"city": "Llallagua", "country": "Bolivia (Plurinational State of)", "lat": -18.4249, "lon": -66.5778, "aqi": 12, "pm25": 11, "ozone": 12, "no2": 0, "co": 0, "category": "Good"}, {"city": "Lochearn", "country": "United States of America", "lat": 39.3407, "lon": -76.7222, "aqi": 42, "pm25": 42, "ozone": 28, "no2": 10, "co": 1, "category": "Good"}, {"city": "Lohardaga", "country": "India", "lat": 23.4331, "lon": 84.6799, "aqi": 185, "pm25": 185, "ozone": 55, "no2": 0, "co": 1, "category": "Unhealthy"}, {"city": "Lohja", "country": "Finland", "lat": 60.2486, "lon": 24.0653, "aqi": 27, "pm25": 19, "ozone": 27, "no2": 4, "co": 1, "category": "Good"},